ODOM 0 0 0 0 0 0 1233.64 pippo 1233.64
ODOM 0.0183253 0.00334028 0 0 0 0 1233.75 pippo 1233.75
ODOM 0.0261559 0.0077021 -0.005005 0 0 0 1233.8 pippo 1233.8
ODOM 0.0390689 0.00129926 -0.001343 0 0 0 1233.88 pippo 1233.88
ODOM 0.0459172 0.00420023 -0.001831 0 0 0 1233.94 pippo 1233.94
ODOM 0.0574015 0.00659252 -0.003784 0 0 0 1233.99 pippo 1233.99
ODOM 0.0693696 0.00776276 -0.003296 0 0 0 1234.04 pippo 1234.04
ODOM 0.0815816 0.00893196 -0.007202 0 0 0 1234.12 pippo 1234.12
ODOM 0.0903737 0.00962666 -0.007202 0 0 0 1234.18 pippo 1234.18
ODOM 0.103804 0.0100577 -0.006958 0 0 0 1234.23 pippo 1234.23
ODOM 0.112092 0.0070935 -0.003051 0 0 0 1234.28 pippo 1234.28
ODOM 0.1243 0.0072857 -0.003784 0 0 0 1234.36 pippo 1234.36
ODOM 0.136027 0.00918897 -0.002319 0 0 0 1234.42 pippo 1234.42
ODOM 0.147717 0.00254731 -0.001343 0 0 0 1234.47 pippo 1234.47
ODOM 0.156034 0.00617406 -0.004272 0 0 0 1234.52 pippo 1234.52
ODOM 0.164084 0.00467489 -0.002319 0 0 0 1234.6 pippo 1234.6
ODOM 0.175071 0.00487328 -0.002197 0 0 0 1234.66 pippo 1234.66
ODOM 0.184587 0.00336789 -0.003906 0 0 0 1234.71 pippo 1234.71
ODOM 0.18874 0.00408228 -0.003784 0 0 0 1234.76 pippo 1234.76
ODOM 0.202159 0.00182833 0.001587 0 0 0 1234.84 pippo 1234.84
ODOM 0.221213 0.00443251 -0.006225 0 0 0 1234.9 pippo 1234.9
ODOM 0.229763 0.00561724 -0.005737 0 0 0 1234.95 pippo 1234.95
ODOM 0.235632 0.00803336 -0.007446 0 0 0 1235 pippo 1235
ODOM 0.243438 0.00653623 -0.003051 0 0 0 1235.08 pippo 1235.08
ODOM 0.255628 0.00257748 -0.003051 0 0 0 1235.14 pippo 1235.14
ODOM 0.265893 0.00497595 -0.002563 0 0 0 1235.19 pippo 1235.19
ODOM 0.273221 0.00567687 -0.00061 0 0 0 1235.24 pippo 1235.24
ODOM 0.292523 0.00925701 -0.008422 0 0 0 1235.32 pippo 1235.32
ODOM 0.303516 0.0109194 -0.008422 0 0 0 1235.38 pippo 1235.38
ODOM 0.312287 0.00673213 -0.006958 0 0 0 1235.43 pippo 1235.43
ODOM 0.323528 0.00888146 -0.007202 0 0 0 1235.48 pippo 1235.48
ODOM 0.33354 0.00957199 -0.011108 0 0 0 1235.56 pippo 1235.56
ODOM 0.344777 0.0109883 -0.01123 0 0 0 1235.62 pippo 1235.62
ODOM 0.357473 0.0111795 -0.008789 0 0 0 1235.67 pippo 1235.67
ODOM 0.365994 0.00552726 -0.012207 0 0 0 1235.72 pippo 1235.72
ODOM 0.369871 -0.00132525 0.00232 0 0 0 1235.8 pippo 1235.8
ODOM 0.38261 0.0088748 -0.005981 0 0 0 1235.86 pippo 1235.86
ODOM 0.390632 0.000784689 -0.005981 0 0 0 1235.91 pippo 1235.91
ODOM 0.408225 0.00437208 -0.004883 0 0 0 1235.96 pippo 1235.96
ODOM 0.417258 0.00408975 -0.004394 0 0 0 1236.04 pippo 1236.04
ODOM 0.419455 0.00408043 -0.000488 0 0 0 1236.1 pippo 1236.1
ODOM 0.430679 0.0025678 -0.000244 0 0 0 1236.15 pippo 1236.15
ODOM 0.441171 0.00130227 -0.000488 0 0 0 1236.2 pippo 1236.2
ODOM 0.459743 0.00512951 -0.004394 0 0 0 1236.28 pippo 1236.28
ODOM 0.46683 0.00680846 -0.006347 0 0 0 1236.33 pippo 1236.33
ODOM 0.479291 0.00919761 -0.006347 0 0 0 1236.39 pippo 1236.39
ODOM 0.485841 -0.000840265 0.000977 0 0 0 1236.44 pippo 1236.44
ODOM 0.49491 0.00766633 -0.006347 0 0 0 1236.52 pippo 1236.52
ODOM 0.517152 0.013431 -0.010009 0 0 0 1236.58 pippo 1236.58
ODOM 0.516588 -0.00438875 0.005371 0 0 0 1236.63 pippo 1236.63
ODOM 0.531292 0.00873299 -0.010131 0 0 0 1236.68 pippo 1236.68
ODOM 0.541782 0.00697946 -0.01062 0 0 0 1236.76 pippo 1236.76
ODOM 0.552524 0.00668889 -0.01062 0 0 0 1236.82 pippo 1236.82
ODOM 0.560347 0.00909772 -0.010498 0 0 0 1236.87 pippo 1236.87
ODOM 0.565969 0.0107829 -0.012207 0 0 0 1236.92 pippo 1236.92
ODOM 0.555687 0.00423445 -0.012817 0 0 0 1237.06 pippo 1237.06
ODOM 0.559134 0.0110559 -0.014526 0 0 0 1237.11 pippo 1237.11
ODOM 0.564499 0.00956811 -0.016479 0 0 0 1237.64 pippo 1237.64
ODOM 0.56058 0.00665471 -0.008911 0 0 0 1237.7 pippo 1237.7
ODOM 0.571817 0.00807205 -0.005005 0 0 0 1237.78 pippo 1237.78
ODOM 0.58622 0.00776694 -0.005005 0 0 0 1237.83 pippo 1237.83
ODOM 0.592542 0.00163706 -0.005005 0 0 0 1237.88 pippo 1237.88
ODOM 0.607913 -0.000626173 -0.005371 0 0 0 1237.96 pippo 1237.96
ODOM 0.618154 -0.00359865 0.009278 0 0 0 1238.02 pippo 1238.02
ODOM 0.626484 0.00320207 -0.006347 0 0 0 1238.07 pippo 1238.07
ODOM 0.63649 0.00218261 -0.005859 0 0 0 1238.13 pippo 1238.13
ODOM 0.645992 -0.00225175 0.003907 0 0 0 1238.2 pippo 1238.2
ODOM 0.652128 0.00529029 -0.012207 0 0 0 1238.26 pippo 1238.26
ODOM 0.641384 0.00484787 -0.011718 0 0 0 1238.36 pippo 1238.36
ODOM 0.648694 0.00139883 0 0 0 0 1238.44 pippo 1238.44
ODOM 0.653165 0.01969 -1.44371 0 0 0 1244.18 pippo 1244.18
FLASER 361 6.4 6.17 5.72 5.67 5.56 5.54 5.5 5.49 5.46 5.46 5.45 5.45 5.47 5.48 5.5 5.51 5.52 5.53 5.56 5.57 5.59 5.6 5.62 5.64 5.67 5.66 5.69 5.71 5.74 5.76 5.79 5.8 5.84 5.85 5.88 5.91 5.94 5.96 6 6.08 6.02 6 5.99 6.02 3.94 3.95 3.93 3.97 4.02 4.03 3.78 3.68 3.62 3.59 3.53 3.55 3.51 3.45 3.47 3.48 3.46 3.68 3.75 3.57 3.56 3.44 3.07 3.01 3 3.02 3.05 3.06 3.1 3.11 3.15 3.17 3.22 3.23 3.28 3.29 3.34 3.36 3.4 3.43 3.48 3.5 3.58 3.57 3.54 3.52 3.49 3.48 3.44 3.42 3.4 3.39 3.36 3.35 3.33 3.32 3.3 3.28 3.26 3.25 3.27 81.87 3.3 3.3 3.46 3.36 3.38 3.41 3.48 3.52 3.59 3.63 3.72 3.76 3.85 3.89 3.97 4.02 4.13 4.3 5.13 5.22 5.39 5.45 5.3 5.28 5.27 5.25 5.23 5.22 5.22 5.2 5.19 5.18 2.91 2.91 2.85 2.85 2.84 2.84 2.83 2.82 2.82 2.82 2.82 2.81 2.81 2.81 2.8 2.8 2.79 2.79 2.79 2.79 2.78 2.78 2.79 2.79 2.78 2.78 1.43 1.02 1.01 1 1.01 1.01 1.01 1.01 1.01 1 1 1 1 1 1.01 1.01 1.01 1.01 1.01 1.01 1.02 1.02 1.02 1.02 1.03 1.03 1.03 1.03 1.04 1.04 1.04 1.05 1.05 1.05 1.06 1.06 1.06 1.06 1.08 1.08 1.08 1.08 1.08 1.09 1.09 1.09 1.1 1.1 1.11 1.11 1.12 1.12 1.13 1.13 1.14 1.14 1.15 1.15 1.16 1.16 1.17 1.17 1.18 1.18 1.2 1.2 1.2 1.2 1.22 1.22 1.23 1.23 1.24 1.25 1.26 1.27 1.27 1.28 1.29 1.3 1.31 1.32 1.33 1.34 1.35 1.36 1.37 1.37 1.4 1.4 1.42 1.43 1.44 1.45 1.48 1.49 1.49 1.48 1.45 1.46 1.5 1.49 1.48 1.49 1.51 1.5 1.5 1.49 1.48 1.47 1.46 1.45 1.43 1.43 1.43 1.42 1.41 1.4 1.39 1.38 1.37 1.37 1.36 1.36 1.36 1.35 1.35 1.34 1.33 1.32 1.32 1.31 1.31 1.31 1.3 1.29 1.29 1.29 1.28 1.27 1.27 1.27 1.27 1.27 1.26 1.26 1.26 1.24 1.24 1.25 1.24 1.24 1.24 1.24 1.23 1.2 1.23 1.22 1.22 1.22 1.22 1.22 1.21 1.21 1.21 1.2 1.2 1.2 1.2 1.2 1.2 1.2 1.19 1.19 1.2 1.2 1.19 1.19 1.19 1.19 1.19 1.18 1.19 1.19 1.19 1.2 1.19 1.19 1.2 1.2 1.19 1.19 1.19 1.19 1.19 1.19 1.19 0.657862 0.0252915 -1.46068 0.657862 0.0252915 -1.46068 1244.18 pippo 1244.18
ODOM 0.657862 0.0252915 -1.46068 0 0 0 0 pippo 0
NEFF 50
ODOM 0.668292 0.0104189 -1.49922 0 0 0 1244.36 pippo 1244.36
ODOM 0.659993 0.010595 -1.50537 0 0 0 1244.42 pippo 1244.42
ODOM 0.659614 0.00425361 -1.51766 0 0 0 1244.5 pippo 1244.5
ODOM 0.658565 0.000857101 -1.52576 0 0 0 1244.55 pippo 1244.55
ODOM 0.661225 -0.0118972 -1.53215 0 0 0 1244.6 pippo 1244.6
ODOM 0.662086 -0.0172877 -1.53858 0 0 0 1244.66 pippo 1244.66
ODOM 0.658992 -0.0250368 -1.54863 0 0 0 1244.74 pippo 1244.74
ODOM 0.660608 -0.0294661 -1.55673 0 0 0 1244.79 pippo 1244.79
ODOM 0.660769 -0.044854 -1.56512 0 0 0 1244.85 pippo 1244.85
ODOM 0.660987 -0.0460799 -1.57028 0 0 0 1244.9 pippo 1244.9
ODOM 0.661617 -0.0509773 -1.58034 0 0 0 1244.98 pippo 1244.98
ODOM 0.657706 -0.062615 -1.58506 0 0 0 1245.03 pippo 1245.03
ODOM 0.661519 -0.0670919 -1.59511 0 0 0 1245.08 pippo 1245.08
ODOM 0.667086 -0.0694075 -1.60126 0 0 0 1245.14 pippo 1245.14
ODOM 0.665756 -0.0745074 -1.61355 0 0 0 1245.22 pippo 1245.22
ODOM 0.660974 -0.0812435 -1.6236 0 0 0 1245.27 pippo 1245.27
ODOM 0.664028 -0.0984021 -1.63565 0 0 0 1245.32 pippo 1245.32
ODOM 0.670681 -0.10709 -1.64794 0 0 0 1245.38 pippo 1245.38
ODOM 0.667909 -0.111182 -1.67126 0 0 0 1245.46 pippo 1245.46
ODOM 0.664814 -0.118931 -1.68774 0 0 0 1245.51 pippo 1245.51
ODOM 0.665884 -0.126036 -1.70842 0 0 0 1245.57 pippo 1245.57
ODOM 0.664098 -0.129661 -1.72734 0 0 0 1245.62 pippo 1245.62
ODOM 0.665615 -0.138728 -1.76091 0 0 0 1245.7 pippo 1245.7
ODOM 0.665018 -0.143843 -1.78407 0 0 0 1245.75 pippo 1245.75
ODOM 0.667672 -0.145365 -1.80532 0 0 0 1245.81 pippo 1245.81
ODOM 0.662935 -0.149905 -1.83157 0 0 0 1245.86 pippo 1245.86
ODOM 0.661259 -0.15988 -1.86844 0 0 0 1245.94 pippo 1245.94
ODOM 0.660495 -0.161329 -1.89245 0 0 0 1245.99 pippo 1245.99
ODOM 0.656238 -0.166367 -1.91481 0 0 0 1246.04 pippo 1246.04
ODOM 0.656082 -0.17369 -1.94009 0 0 0 1246.1 pippo 1246.1
ODOM 0.65373 -0.180966 -1.97501 0 0 0 1246.18 pippo 1246.18
FLASER 361 1.43 1.48 2.39 2.39 1.34 1.34 1.32 1.32 1.31 1.31 1.31 1.29 1.3 1.3 1.31 1.32 3.62 3.67 3.91 3.96 4.25 4.39 5.35 5.36 5.4 5.41 5.78 5.92 6.59 6.77 7.66 7.92 9.07 9.45 11.61 11.85 16.32 16.35 22.75 81.91 40.43 40.46 36.05 40.57 81.89 81.91 19.03 81.91 7.35 7.32 7.08 7.09 7.08 7.09 6.49 6.35 5.68 5.63 5.53 5.5 5.45 5.46 5.43 5.43 5.42 5.43 5.44 5.44 5.45 5.45 5.48 5.49 5.5 5.51 5.53 5.54 5.57 5.58 5.6 5.61 5.64 5.65 5.67 5.67 5.71 5.72 5.76 5.76 5.8 5.8 5.85 5.86 5.9 5.91 5.92 5.92 5.9 3.84 3.83 3.82 3.89 3.89 3.92 3.89 3.53 3.52 3.42 3.42 3.41 3.4 3.35 3.36 3.36 3.33 3.92 3.85 3.48 3.44 2.95 2.91 2.86 2.88 2.92 2.92 2.96 2.96 3.01 3.02 3.06 3.06 3.11 3.12 3.16 3.17 3.23 3.23 3.29 3.29 3.34 3.34 3.42 3.41 3.37 3.37 3.33 3.32 3.29 3.27 3.24 3.23 3.2 3.18 3.16 3.15 3.12 3.11 3.08 3.08 3.11 3.1 3.13 3.12 3.59 3.94 3.18 3.18 3.26 3.28 3.35 3.37 3.46 3.47 3.57 3.59 3.69 3.7 3.81 3.83 3.95 3.99 4.53 4.91 5.11 5.15 5.11 5.09 5.07 5.07 5.05 5.04 5.04 5.02 5.01 5 2.72 2.71 2.66 2.65 2.65 2.65 2.63 2.64 2.62 2.62 2.61 2.61 2.61 2.6 2.6 2.59 2.59 2.59 2.59 2.59 2.59 2.58 2.59 2.59 2.59 2.58 2.58 2.58 1.2 0.9 0.81 0.81 0.81 0.81 0.8 0.81 0.8 0.81 0.8 0.8 0.8 0.8 0.8 0.81 0.81 0.81 0.81 0.81 0.82 0.81 0.82 0.82 0.83 0.82 0.83 0.83 0.83 0.83 0.84 0.83 0.84 0.84 0.85 0.85 0.85 0.85 0.85 0.85 0.85 0.85 0.86 0.86 0.87 0.87 0.88 0.88 0.88 0.88 0.89 0.89 0.9 0.9 0.91 0.91 0.92 0.92 0.92 0.92 0.93 0.93 0.93 0.93 0.95 0.94 0.96 0.96 0.97 0.97 0.99 0.98 0.99 0.99 1 1 1.02 1.02 1.04 1.04 1.06 1.06 1.07 1.06 1.08 1.09 1.1 1.11 1.11 1.12 1.14 1.14 1.15 1.15 1.17 1.17 1.2 1.2 1.22 1.22 1.25 1.25 1.27 1.27 1.3 1.3 1.33 1.34 1.35 1.35 1.34 1.34 1.36 1.38 1.36 1.36 1.38 1.39 1.38 1.38 1.37 1.36 1.35 1.35 1.36 1.35 1.34 1.34 1.33 1.32 1.32 1.32 1.31 1.3 1.29 1.29 1.28 1.28 1.27 0.670468 -0.184464 -1.96915 0.670468 -0.184464 -1.96915 1246.18 pippo 1246.18
ODOM 0.670468 -0.184464 -1.96915 0 0 0 0 pippo 0
NEFF 49.9372
ODOM 0.670794 -0.194969 -2.01664 0 0 0 1246.28 pippo 1246.28
ODOM 0.668815 -0.196648 -2.03956 0 0 0 1246.34 pippo 1246.34
ODOM 0.671418 -0.21793 -2.07977 0 0 0 1246.42 pippo 1246.42
ODOM 0.656186 -0.208173 -2.0993 0 0 0 1246.47 pippo 1246.47
ODOM 0.640627 -0.219654 -2.12263 0 0 0 1246.53 pippo 1246.53
ODOM 0.641862 -0.218697 -2.14546 0 0 0 1246.58 pippo 1246.58
ODOM 0.643823 -0.234109 -2.18176 0 0 0 1246.66 pippo 1246.66
ODOM 0.63461 -0.229817 -2.2041 0 0 0 1246.71 pippo 1246.71
ODOM 0.630134 -0.23512 -2.2273 0 0 0 1246.77 pippo 1246.77
ODOM 0.629 -0.245358 -2.25075 0 0 0 1246.82 pippo 1246.82
ODOM 0.619589 -0.254003 -2.28676 0 0 0 1246.9 pippo 1246.9
ODOM 0.623814 -0.265055 -2.31358 0 0 0 1246.95 pippo 1246.95
ODOM 0.620862 -0.266475 -2.33719 0 0 0 1247.01 pippo 1247.01
ODOM 0.616453 -0.267385 -2.3601 0 0 0 1247.06 pippo 1247.06
ODOM 0.615026 -0.280792 -2.39221 0 0 0 1247.14 pippo 1247.14
ODOM 0.610122 -0.282181 -2.41065 0 0 0 1247.19 pippo 1247.19
ODOM 0.605885 -0.287733 -2.42966 0 0 0 1247.24 pippo 1247.24
ODOM 0.596324 -0.290271 -2.45005 0 0 0 1247.3 pippo 1247.3
ODOM 0.592276 -0.299488 -2.4802 0 0 0 1247.38 pippo 1247.38
FLASER 361 1.39 1.41 1.42 1.43 1.43 1.44 1.46 1.47 1.49 1.5 1.51 1.52 1.53 1.55 1.56 1.57 1.59 1.6 1.62 1.63 1.66 1.65 1.26 1.24 1.24 1.22 1.21 1.2 1.19 1.18 1.19 1.13 1.1 1.09 1.07 1.06 1.04 1.04 1.03 1.03 1.03 1.03 1.05 1.05 1.06 1.07 1.29 2.06 2.11 2.13 2.19 2.21 2.27 2.3 2.36 2.39 2.46 2.48 2.57 2.62 2.69 2.72 2.83 2.86 2.97 3.01 3.14 3.18 3.32 3.37 3.54 3.57 3.77 3.82 4.04 4.11 4.53 5.39 5.32 5.3 5.35 5.36 5.7 5.84 6.37 6.56 7.22 7.46 8.33 8.64 10.76 10.79 12.08 12.66 16.27 16.6 22.68 81.91 40.38 40.37 37.69 40.51 40.51 40.53 18.95 7.25 7.19 7.15 6.98 7.06 7.1 6.71 5.71 5.6 5.47 5.44 5.38 5.36 5.35 5.34 5.33 5.33 5.33 5.34 5.35 5.35 5.37 5.37 5.4 5.39 5.42 5.43 5.45 5.46 5.49 5.49 5.51 5.52 5.55 5.56 5.59 5.6 5.63 5.64 5.66 5.67 5.71 5.72 5.76 5.76 5.84 5.88 5.82 5.78 3.72 3.72 3.75 3.76 3.79 3.81 3.45 3.43 3.34 3.33 3.31 3.3 3.21 3.22 3.25 3.24 3.32 3.33 3.44 3.42 3.1 3.09 2.73 2.74 2.76 2.77 2.79 2.8 2.84 2.85 2.89 2.9 2.94 2.95 2.98 3 3.04 3.05 3.09 3.1 3.15 3.16 3.22 3.23 3.29 3.28 3.24 3.24 3.2 3.19 3.16 3.15 3.11 3.1 3.08 3.06 3.03 3.02 3 2.98 2.97 2.96 2.95 2.96 2.95 2.95 2.98 81.87 3.07 3.05 3.07 3.09 3.16 3.18 3.26 3.28 3.36 3.38 3.46 3.49 3.59 3.61 3.71 3.74 3.92 4.22 4.84 4.88 5.05 5.09 4.97 4.96 4.94 4.94 4.92 4.9 4.9 4.89 4.87 4.87 2.59 2.59 2.54 2.52 2.52 2.51 2.51 2.51 2.5 2.5 2.49 2.49 2.48 2.48 2.47 2.47 2.47 2.47 2.47 2.47 2.46 2.46 2.46 2.46 2.47 2.47 2.47 2.46 2.47 2.46 2.46 2.14 1.57 1.51 1.18 1.15 0.89 0.87 0.75 0.73 0.7 0.7 0.7 0.7 0.7 0.7 0.7 0.7 0.71 0.71 0.71 0.71 0.71 0.71 0.71 0.7 0.7 0.7 0.71 0.71 0.71 0.71 0.72 0.72 0.72 0.72 0.73 0.72 0.73 0.73 0.74 0.74 0.75 0.75 0.75 0.74 0.76 0.75 0.76 0.76 0.76 0.76 0.77 0.77 0.78 0.78 0.79 0.79 0.8 0.8 0.81 0.81 0.82 0.82 0.83 0.83 0.84 0.84 0.84 0.84 0.85 0.85 0.86 0.86 0.87 0.87 0.88 0.584446 -0.31355 -2.4802 0.584446 -0.31355 -2.4802 1247.38 pippo 1247.38
ODOM 0.584446 -0.31355 -2.4802 0 0 0 0 pippo 0
NEFF 49.6375
ODOM 0.564605 -0.31764 -2.51399 0 0 0 1247.49 pippo 1247.49
ODOM 0.556651 -0.326796 -2.53096 0 0 0 1247.54 pippo 1247.54
ODOM 0.547558 -0.330564 -2.5533 0 0 0 1247.62 pippo 1247.62
ODOM 0.537648 -0.339934 -2.57113 0 0 0 1247.67 pippo 1247.67
ODOM 0.526385 -0.341958 -2.57715 0 0 0 1247.73 pippo 1247.73
ODOM 0.521965 -0.343599 -2.57646 0 0 0 1247.78 pippo 1247.78
ODOM 0.511836 -0.351258 -2.57646 0 0 0 1247.86 pippo 1247.86
ODOM 0.500209 -0.36109 -2.57646 0 0 0 1247.91 pippo 1247.91
ODOM 0.495204 -0.36907 -2.57646 0 0 0 1247.97 pippo 1247.97
ODOM 0.485582 -0.375515 -2.57646 0 0 0 1248.02 pippo 1248.02
ODOM 0.477154 -0.383688 -2.57646 0 0 0 1248.1 pippo 1248.1
ODOM 0.468599 -0.384288 -2.57622 0 0 0 1248.15 pippo 1248.15
ODOM 0.464067 -0.393253 -2.57609 0 0 0 1248.21 pippo 1248.21
ODOM 0.452319 -0.395027 -2.57414 0 0 0 1248.26 pippo 1248.26
ODOM 0.439566 -0.398737 -2.57414 0 0 0 1248.34 pippo 1248.34
ODOM 0.433387 -0.403526 -2.57438 0 0 0 1248.39 pippo 1248.39
ODOM 0.428874 -0.41127 -2.57438 0 0 0 1248.45 pippo 1248.45
ODOM 0.427075 -0.417103 -2.57438 0 0 0 1248.5 pippo 1248.5
ODOM 0.413007 -0.426897 -2.57438 0 0 0 1248.58 pippo 1248.58
ODOM 0.402214 -0.430149 -2.57438 0 0 0 1248.63 pippo 1248.63
ODOM 0.396986 -0.436662 -2.57438 0 0 0 1248.69 pippo 1248.69
ODOM 0.386177 -0.440891 -2.57414 0 0 0 1248.77 pippo 1248.77
ODOM 0.383913 -0.445251 -2.57316 0 0 0 1248.82 pippo 1248.82
ODOM 0.376728 -0.451978 -2.57268 0 0 0 1248.87 pippo 1248.87
ODOM 0.371268 -0.457753 -2.57268 0 0 0 1248.93 pippo 1248.93
ODOM 0.355322 -0.462636 -2.57268 0 0 0 1248.98 pippo 1248.98
ODOM 0.337668 -0.467492 -2.57044 0 0 0 1249.06 pippo 1249.06
ODOM 0.334254 -0.483067 -2.57044 0 0 0 1249.11 pippo 1249.11
ODOM 0.330682 -0.477152 -2.56429 0 0 0 1249.17 pippo 1249.17
ODOM 0.318481 -0.492592 -2.55692 0 0 0 1249.22 pippo 1249.22
ODOM 0.315202 -0.499378 -2.54073 0 0 0 1249.3 pippo 1249.3
ODOM 0.30125 -0.501605 -2.52648 0 0 0 1249.35 pippo 1249.35
ODOM 0.291463 -0.50292 -2.51269 0 0 0 1249.41 pippo 1249.41
ODOM 0.285582 -0.504295 -2.49006 0 0 0 1249.46 pippo 1249.46
ODOM 0.279203 -0.522265 -2.45823 0 0 0 1249.54 pippo 1249.54
ODOM 0.271221 -0.51726 -2.43129 0 0 0 1249.59 pippo 1249.59
ODOM 0.253522 -0.509174 -2.40447 0 0 0 1249.65 pippo 1249.65
ODOM 0.255178 -0.528489 -2.38603 0 0 0 1249.7 pippo 1249.7
ODOM 0.242924 -0.531475 -2.35111 0 0 0 1249.78 pippo 1249.78
ODOM 0.248088 -0.544984 -2.33072 0 0 0 1249.83 pippo 1249.83
ODOM 0.23601 -0.552367 -2.30622 0 0 0 1249.89 pippo 1249.89
ODOM 0.230445 -0.564978 -2.28534 0 0 0 1249.94 pippo 1249.94
ODOM 0.217646 -0.571619 -2.24904 0 0 0 1250.02 pippo 1250.02
ODOM 0.212057 -0.569823 -2.22096 0 0 0 1250.07 pippo 1250.07
ODOM 0.208937 -0.582229 -2.19625 0 0 0 1250.13 pippo 1250.13
ODOM 0.211258 -0.590078 -2.17167 0 0 0 1250.18 pippo 1250.18
FLASER 361 2.24 2.3 2.3 2.36 2.38 2.43 2.43 2.51 2.51 2.59 2.6 2.68 2.68 2.77 2.78 2.88 2.88 2.99 3 3.12 3.11 3.26 3.26 3.4 3.4 3.55 3.57 3.74 3.75 3.93 3.95 4.99 4.99 5.05 5.03 81.87 81.91 5.05 5.06 5.39 5.42 5.88 5.91 6.38 6.42 6.99 7.05 7.71 7.82 8.65 8.8 10.43 10.44 11.61 11.8 14.02 14.11 81.87 81.87 81.91 81.91 81.91 81.87 40.13 40.13 40.1 40.11 6.57 6.58 6.71 6.71 5.27 5.2 5.05 5.04 4.97 4.96 4.92 4.92 4.91 4.91 4.91 4.91 4.92 4.91 4.93 4.93 4.95 4.95 4.96 4.96 4.98 4.99 5.01 5.02 5.04 5.04 5.06 5.07 5.1 5.1 5.13 5.13 5.16 5.16 5.2 5.2 5.23 5.24 5.28 5.28 5.32 5.33 5.37 5.36 3.26 3.26 3.25 3.27 3.3 3.3 3.09 3.04 2.92 2.92 2.81 2.83 2.82 2.82 2.74 2.74 2.76 2.76 81.87 2.79 81.89 2.91 2.77 2.69 2.34 2.31 2.25 2.25 2.28 2.29 2.32 2.33 2.36 2.36 2.4 2.4 2.44 2.44 2.47 2.47 2.51 2.52 2.56 2.57 2.62 2.62 2.66 2.67 2.72 2.73 2.8 2.83 2.81 2.81 2.76 2.76 2.73 2.73 2.69 2.69 2.66 2.66 2.63 2.63 2.59 2.59 2.57 2.57 2.54 2.54 2.52 2.52 2.5 2.5 2.53 2.53 2.53 2.56 81.87 2.99 2.62 2.62 2.66 2.67 2.75 2.77 2.86 2.87 2.96 2.98 3.08 3.1 3.21 3.22 3.34 3.36 3.94 4.37 4.73 4.75 4.59 4.59 4.58 4.57 4.57 4.57 4.55 4.55 4.53 4.53 4.51 4.51 4.49 4.49 4.12 4.11 4.09 4.1 2.29 2.29 2.24 2.24 2.18 2.18 2.18 2.18 2.19 2.19 2.19 2.19 2.19 2.19 2.19 2.19 2.19 2.19 2.19 2.19 2.19 2.19 2.19 2.19 2.18 2.18 2.19 2.19 2.19 2.2 2.2 2.2 2.21 2.21 2.21 2.22 2.22 2.19 2.02 2 1.86 1.83 1.73 1.71 1.63 1.61 1.53 1.52 1.46 1.44 1.38 1.37 1.32 1.31 1.26 1.25 1.21 1.2 1.15 1.15 1.12 1.11 1.07 1.07 1.04 1.03 0.99 0.99 0.96 0.95 0.93 0.93 0.92 0.91 0.88 0.88 0.86 0.85 0.83 0.83 0.82 0.81 0.79 0.79 0.77 0.77 0.75 0.75 0.74 0.73 0.72 0.72 0.7 0.7 0.69 0.69 0.68 0.67 0.66 0.66 0.65 0.65 0.64 0.64 0.64 0.63 0.63 0.62 0.61 0.6 0.61 0.61 0.62 0.62 0.63 0.64 0.65 0.66 0.67 0.68 0.69 0.69 0.7 0.7 0.71 0.72 0.73 0.73 0.213922 -0.583349 -2.17167 0.213922 -0.583349 -2.17167 1250.18 pippo 1250.18
ODOM 0.213922 -0.583349 -2.17167 0 0 0 0 pippo 0
NEFF 49.4475
ODOM 0.184663 -0.596573 -2.1024 0 0 0 1250.31 pippo 1250.31
ODOM 0.17779 -0.598909 -2.07578 0 0 0 1250.37 pippo 1250.37
ODOM 0.16936 -0.607325 -2.0512 0 0 0 1250.42 pippo 1250.42
ODOM 0.164185 -0.626291 -2.03179 0 0 0 1250.5 pippo 1250.5
ODOM 0.161206 -0.62942 -2.02731 0 0 0 1250.55 pippo 1250.55
ODOM 0.164466 -0.639725 -2.02487 0 0 0 1250.61 pippo 1250.61
ODOM 0.158199 -0.650372 -2.01872 0 0 0 1250.66 pippo 1250.66
ODOM 0.155367 -0.659852 -2.01258 0 0 0 1250.74 pippo 1250.74
ODOM 0.140747 -0.657918 -2.00668 0 0 0 1250.79 pippo 1250.79
ODOM 0.143233 -0.670896 -2.01034 0 0 0 1250.85 pippo 1250.85
ODOM 0.140935 -0.677454 -2.01132 0 0 0 1250.9 pippo 1250.9
ODOM 0.139403 -0.697697 -2.01132 0 0 0 1250.98 pippo 1250.98
ODOM 0.132414 -0.7076 -2.01132 0 0 0 1251.03 pippo 1251.03
ODOM 0.133752 -0.715922 -2.01132 0 0 0 1251.09 pippo 1251.09
ODOM 0.12526 -0.712373 -2.00936 0 0 0 1251.14 pippo 1251.14
ODOM 0.120904 -0.725736 -2.00839 0 0 0 1251.22 pippo 1251.22
ODOM 0.116 -0.742997 -2.00546 0 0 0 1251.27 pippo 1251.27
ODOM 0.106874 -0.74896 -1.99882 0 0 0 1251.33 pippo 1251.33
ODOM 0.11016 -0.757557 -1.99044 0 0 0 1251.38 pippo 1251.38
ODOM 0.105319 -0.770668 -1.9755 0 0 0 1251.46 pippo 1251.46
ODOM 0.0955219 -0.772715 -1.96321 0 0 0 1251.51 pippo 1251.51
ODOM 0.0931554 -0.783667 -1.95385 0 0 0 1251.57 pippo 1251.57
ODOM 0.0893176 -0.795083 -1.93765 0 0 0 1251.62 pippo 1251.62
ODOM 0.0851609 -0.811379 -1.91112 0 0 0 1251.7 pippo 1251.7
ODOM 0.0790201 -0.813726 -1.89415 0 0 0 1251.75 pippo 1251.75
ODOM 0.0735448 -0.820479 -1.87766 0 0 0 1251.81 pippo 1251.81
ODOM 0.0730646 -0.835854 -1.86739 0 0 0 1251.86 pippo 1251.86
ODOM 0.0655577 -0.847703 -1.8551 0 0 0 1251.94 pippo 1251.94
ODOM 0.0651263 -0.859905 -1.84835 0 0 0 1251.99 pippo 1251.99
ODOM 0.059038 -0.858835 -1.83947 0 0 0 1252.04 pippo 1252.04
ODOM 0.0615887 -0.867664 -1.83333 0 0 0 1252.1 pippo 1252.1
ODOM 0.0566315 -0.888342 -1.83137 0 0 0 1252.18 pippo 1252.18
ODOM 0.0561174 -0.890043 -1.82523 0 0 0 1252.23 pippo 1252.23
ODOM 0.0532067 -0.904649 -1.82511 0 0 0 1252.29 pippo 1252.29
ODOM 0.0468417 -0.905772 -1.82486 0 0 0 1252.34 pippo 1252.34
ODOM 0.0429402 -0.921339 -1.82486 0 0 0 1252.42 pippo 1252.42
ODOM 0.0398343 -0.932767 -1.82535 0 0 0 1252.47 pippo 1252.47
ODOM 0.0443978 -0.937721 -1.82535 0 0 0 1252.53 pippo 1252.53
ODOM 0.0395943 -0.948391 -1.82535 0 0 0 1252.58 pippo 1252.58
ODOM 0.0398686 -0.962312 -1.82535 0 0 0 1252.66 pippo 1252.66
ODOM 0.0338978 -0.969546 -1.82535 0 0 0 1252.71 pippo 1252.71
ODOM 0.0285689 -0.982649 -1.82535 0 0 0 1252.77 pippo 1252.77
ODOM 0.0230523 -0.992087 -1.82535 0 0 0 1252.82 pippo 1252.82
ODOM 0.0228761 -1.00356 -1.82437 0 0 0 1252.9 pippo 1252.9
ODOM 0.0253508 -1.01727 -1.82437 0 0 0 1252.95 pippo 1252.95
ODOM 0.0163039 -1.01811 -1.82462 0 0 0 1253.01 pippo 1253.01
ODOM 0.0100966 -1.02485 -1.82462 0 0 0 1253.06 pippo 1253.06
ODOM 0.0121511 -1.05003 -1.82462 0 0 0 1253.14 pippo 1253.14
ODOM 0.00555617 -1.05017 -1.82462 0 0 0 1253.19 pippo 1253.19
ODOM 0.00389638 -1.06285 -1.82462 0 0 0 1253.25 pippo 1253.25
ODOM 0.00598539 -1.06996 -1.82462 0 0 0 1253.3 pippo 1253.3
ODOM -0.000782059 -1.08133 -1.82266 0 0 0 1253.38 pippo 1253.38
ODOM -0.00194641 -1.09352 -1.82291 0 0 0 1253.43 pippo 1253.43
ODOM -0.0110683 -1.09924 -1.82291 0 0 0 1253.49 pippo 1253.49
ODOM -0.00685007 -1.11078 -1.82291 0 0 0 1253.54 pippo 1253.54
ODOM -0.0104139 -1.12025 -1.82315 0 0 0 1253.62 pippo 1253.62
ODOM -0.0138237 -1.13558 -1.82291 0 0 0 1253.67 pippo 1253.67
ODOM -0.0133883 -1.13901 -1.82291 0 0 0 1253.73 pippo 1253.73
ODOM -0.0140374 -1.14949 -1.82291 0 0 0 1253.78 pippo 1253.78
ODOM -0.019903 -1.16576 -1.82193 0 0 0 1253.86 pippo 1253.86
ODOM -0.0265017 -1.16615 -1.82193 0 0 0 1253.91 pippo 1253.91
ODOM -0.0253106 -1.18399 -1.82193 0 0 0 1253.97 pippo 1253.97
ODOM -0.0288482 -1.19175 -1.82193 0 0 0 1254.02 pippo 1254.02
ODOM -0.0374032 -1.20822 -1.82144 0 0 0 1254.1 pippo 1254.1
ODOM -0.040723 -1.2177 -1.82144 0 0 0 1254.15 pippo 1254.15
ODOM -0.0366447 -1.2224 -1.82144 0 0 0 1254.21 pippo 1254.21
ODOM -0.0434037 -1.23328 -1.82242 0 0 0 1254.26 pippo 1254.26
ODOM -0.050979 -1.24953 -1.82047 0 0 0 1254.34 pippo 1254.34
ODOM -0.053262 -1.25511 -1.82047 0 0 0 1254.39 pippo 1254.39
ODOM -0.0524014 -1.26269 -1.82071 0 0 0 1254.45 pippo 1254.45
ODOM -0.0540049 -1.2717 -1.82071 0 0 0 1254.5 pippo 1254.5
ODOM -0.0549365 -1.28462 -1.82071 0 0 0 1254.58 pippo 1254.58
ODOM -0.0570468 -1.29485 -1.81864 0 0 0 1254.63 pippo 1254.63
ODOM -0.0651356 -1.29692 -1.81864 0 0 0 1254.69 pippo 1254.69
ODOM -0.0663599 -1.31302 -1.81851 0 0 0 1254.74 pippo 1254.74
ODOM -0.067637 -1.31666 -1.81851 0 0 0 1254.82 pippo 1254.82
ODOM -0.0654128 -1.33086 -1.82242 0 0 0 1254.87 pippo 1254.87
ODOM -0.0706666 -1.33908 -1.82205 0 0 0 1254.93 pippo 1254.93
ODOM -0.07372 -1.34709 -1.82205 0 0 0 1254.98 pippo 1254.98
ODOM -0.0773926 -1.36363 -1.82796 0 0 0 1255.06 pippo 1255.06
ODOM -0.0767647 -1.37048 -1.82893 0 0 0 1255.11 pippo 1255.11
ODOM -0.0801445 -1.38386 -1.83288 0 0 0 1255.17 pippo 1255.17
ODOM -0.0870847 -1.39059 -1.83903 0 0 0 1255.22 pippo 1255.22
ODOM -0.0913364 -1.39712 -1.84684 0 0 0 1255.3 pippo 1255.3
ODOM -0.092875 -1.41785 -1.85107 0 0 0 1255.35 pippo 1255.35
FLASER 361 8.2 8.47 8.78 9.08 10.21 10.26 10.33 10.7 11.22 11.74 12.44 12.99 13.87 81.87 6.67 6.56 4.96 4.81 4.72 4.69 4.67 4.64 4.62 4.61 4.59 4.59 4.59 4.58 4.58 4.58 4.59 4.59 4.58 4.58 4.6 4.6 4.61 4.61 4.61 4.61 4.62 4.62 4.63 4.64 4.64 4.65 4.66 4.67 4.68 4.68 4.69 2.77 2.75 2.76 2.76 2.74 2.62 2.39 2.29 2.25 2.29 2.18 2.17 2.15 2.15 2.12 2.04 1.85 1.6 1.6 1.6 1.6 1.61 1.62 1.63 1.63 1.64 1.65 1.66 1.66 1.66 1.67 1.68 1.69 1.7 1.71 1.72 1.73 1.74 1.74 1.75 1.76 1.77 1.78 1.79 1.81 1.81 1.83 1.83 1.85 1.86 1.87 1.89 1.89 1.91 1.92 1.94 1.95 1.96 1.98 2.02 2.05 2.03 2.01 1.99 1.97 1.95 1.93 1.91 1.9 1.89 1.87 1.85 1.84 1.82 1.81 1.8 1.78 1.77 1.75 1.75 1.73 1.72 1.7 1.69 1.68 1.67 1.66 1.65 1.65 1.65 1.66 1.68 1.68 1.65 1.64 1.68 1.67 1.71 1.78 2.51 1.78 1.75 1.74 1.77 1.79 1.83 1.84 1.89 1.9 1.95 1.96 2.01 2.04 2.07 2.1 2.15 2.18 2.24 2.27 2.32 2.37 2.42 2.47 2.54 2.76 3.66 3.75 3.87 3.77 3.7 3.69 3.69 3.68 3.67 3.66 3.66 3.66 3.65 3.64 3.64 3.63 3.64 3.63 3.63 3.63 3.63 3.89 3.25 3.24 3.24 3.23 3.23 3.23 3.22 3.22 3.22 3.21 3.21 3.2 3.2 1.45 1.45 1.41 1.4 1.4 1.38 1.38 1.35 1.35 1.36 1.36 1.35 1.35 1.36 1.36 1.36 1.36 1.36 1.36 1.36 1.36 1.37 1.37 1.37 1.37 1.38 1.38 1.39 1.39 1.4 1.4 1.4 1.4 1.41 1.41 1.42 1.42 1.43 1.43 1.43 1.43 1.43 1.43 1.44 1.45 1.45 1.46 1.47 1.47 1.48 1.48 1.49 1.5 1.5 1.51 1.52 1.51 1.48 1.46 1.42 1.41 1.38 1.36 1.33 1.33 1.3 1.29 1.26 1.26 1.24 1.23 1.21 1.19 1.18 1.17 1.14 1.14 1.13 1.12 1.1 1.09 1.07 1.07 1.05 1.05 1.04 1.03 1.01 1.01 1 0.99 0.99 0.98 0.98 0.97 0.96 0.95 0.94 0.93 0.93 0.92 0.92 0.92 0.9 0.9 0.89 0.89 0.88 0.88 0.87 0.86 0.86 0.85 0.85 0.84 0.84 0.84 0.84 0.83 0.83 0.82 0.82 0.81 0.8 0.8 0.8 0.8 0.79 0.79 0.78 0.78 0.78 0.77 0.77 0.77 0.76 0.76 0.76 0.76 0.76 0.76 0.76 0.75 0.75 0.76 0.75 0.75 0.74 0.73 0.73 -0.104871 -1.41066 -1.84951 -0.104871 -1.41066 -1.84951 1255.35 pippo 1255.35
ODOM -0.104871 -1.41066 -1.84951 0 0 0 0 pippo 0
NEFF 49.0943
ODOM -0.11164 -1.42351 -1.86034 0 0 0 1255.46 pippo 1255.46
ODOM -0.117098 -1.42978 -1.86843 0 0 0 1255.54 pippo 1255.54
ODOM -0.120203 -1.44243 -1.87671 0 0 0 1255.59 pippo 1255.59
ODOM -0.12325 -1.45094 -1.88461 0 0 0 1255.65 pippo 1255.65
ODOM -0.122663 -1.46144 -1.89075 0 0 0 1255.7 pippo 1255.7
ODOM -0.130596 -1.47012 -1.90178 0 0 0 1255.78 pippo 1255.78
ODOM -0.128407 -1.48847 -1.90992 0 0 0 1255.83 pippo 1255.83
ODOM -0.131618 -1.49111 -1.91607 0 0 0 1255.89 pippo 1255.89
ODOM -0.139354 -1.50321 -1.92221 0 0 0 1255.94 pippo 1255.94
ODOM -0.143896 -1.51389 -1.93178 0 0 0 1256.02 pippo 1256.02
ODOM -0.142204 -1.51513 -1.93792 0 0 0 1256.07 pippo 1256.07
ODOM -0.146753 -1.5263 -1.9424 0 0 0 1256.13 pippo 1256.13
ODOM -0.151232 -1.53234 -1.94903 0 0 0 1256.18 pippo 1256.18
ODOM -0.155068 -1.54499 -1.95884 0 0 0 1256.26 pippo 1256.26
ODOM -0.158861 -1.55446 -1.96499 0 0 0 1256.31 pippo 1256.31
ODOM -0.169296 -1.5675 -1.97113 0 0 0 1256.37 pippo 1256.37
ODOM -0.175008 -1.5745 -1.9763 0 0 0 1256.42 pippo 1256.42
ODOM -0.177588 -1.58448 -1.9844 0 0 0 1256.5 pippo 1256.5
ODOM -0.18326 -1.58855 -1.99083 0 0 0 1256.55 pippo 1256.55
ODOM -0.186622 -1.60217 -1.99698 0 0 0 1256.61 pippo 1256.61
ODOM -0.185604 -1.61684 -2.00381 0 0 0 1256.66 pippo 1256.66
ODOM -0.193089 -1.62846 -2.0122 0 0 0 1256.74 pippo 1256.74
ODOM -0.197313 -1.63377 -2.0181 0 0 0 1256.79 pippo 1256.79
ODOM -0.200598 -1.64178 -2.02034 0 0 0 1256.85 pippo 1256.85
ODOM -0.203868 -1.64882 -2.02648 0 0 0 1256.9 pippo 1256.9
ODOM -0.215524 -1.66184 -2.02648 0 0 0 1256.98 pippo 1256.98
ODOM -0.218609 -1.67303 -2.02648 0 0 0 1257.03 pippo 1257.03
ODOM -0.221137 -1.67934 -2.02648 0 0 0 1257.09 pippo 1257.09
ODOM -0.218041 -1.685 -2.02648 0 0 0 1257.14 pippo 1257.14
ODOM -0.226069 -1.70052 -2.02648 0 0 0 1257.22 pippo 1257.22
ODOM -0.229554 -1.70535 -2.02612 0 0 0 1257.27 pippo 1257.27
ODOM -0.238223 -1.71427 -2.02661 0 0 0 1257.33 pippo 1257.33
ODOM -0.237116 -1.72258 -2.02648 0 0 0 1257.38 pippo 1257.38
ODOM -0.25123 -1.73679 -2.02648 0 0 0 1257.46 pippo 1257.46
ODOM -0.257189 -1.74404 -2.02648 0 0 0 1257.51 pippo 1257.51
ODOM -0.257147 -1.75869 -2.02624 0 0 0 1257.57 pippo 1257.57
ODOM -0.259619 -1.76085 -2.02624 0 0 0 1257.62 pippo 1257.62
ODOM -0.263944 -1.77349 -2.02612 0 0 0 1257.7 pippo 1257.7
ODOM -0.273047 -1.77849 -2.02612 0 0 0 1257.75 pippo 1257.75
ODOM -0.276532 -1.78332 -2.02612 0 0 0 1257.81 pippo 1257.81
ODOM -0.277542 -1.78575 -2.02807 0 0 0 1257.86 pippo 1257.86
ODOM -0.273925 -1.78898 -2.02807 0 0 0 1257.99 pippo 1257.99
ODOM -0.277366 -1.79064 -2.02612 0 0 0 1258.05 pippo 1258.05
ODOM -0.284237 -1.79323 -2.02612 0 0 0 1258.1 pippo 1258.1
ODOM -0.281179 -1.80157 -2.02612 0 0 0 1258.18 pippo 1258.18
ODOM -0.280182 -1.80012 -2.02612 0 0 0 1258.23 pippo 1258.23
ODOM -0.286874 -1.80735 -2.02954 0 0 0 1258.29 pippo 1258.29
ODOM -0.282229 -1.80693 -2.03568 0 0 0 1258.34 pippo 1258.34
ODOM -0.285179 -1.80835 -2.04809 0 0 0 1258.42 pippo 1258.42
ODOM -0.285972 -1.81274 -2.06014 0 0 0 1258.47 pippo 1258.47
ODOM -0.290427 -1.81707 -2.06922 0 0 0 1258.53 pippo 1258.53
ODOM -0.287009 -1.81712 -2.0776 0 0 0 1258.58 pippo 1258.58
ODOM -0.294346 -1.818 -2.09351 0 0 0 1258.66 pippo 1258.66
ODOM -0.296098 -1.82114 -2.10511 0 0 0 1258.71 pippo 1258.71
ODOM -0.294975 -1.82824 -2.11708 0 0 0 1258.77 pippo 1258.77
ODOM -0.295488 -1.82994 -2.12713 0 0 0 1258.82 pippo 1258.82
ODOM -0.293586 -1.83363 -2.14557 0 0 0 1258.9 pippo 1258.9
ODOM -0.299247 -1.83697 -2.15562 0 0 0 1258.95 pippo 1258.95
ODOM -0.301705 -1.83816 -2.16401 0 0 0 1259.01 pippo 1259.01
ODOM -0.301511 -1.84182 -2.17483 0 0 0 1259.06 pippo 1259.06
ODOM -0.305324 -1.85276 -2.19103 0 0 0 1259.14 pippo 1259.14
ODOM -0.307504 -1.85151 -2.19941 0 0 0 1259.2 pippo 1259.2
ODOM -0.306569 -1.85445 -2.20947 0 0 0 1259.25 pippo 1259.25
ODOM -0.310789 -1.85952 -2.22009 0 0 0 1259.3 pippo 1259.3
ODOM -0.312903 -1.85339 -2.23433 0 0 0 1259.38 pippo 1259.38
ODOM -0.315679 -1.85994 -2.24439 0 0 0 1259.43 pippo 1259.43
ODOM -0.315726 -1.86336 -2.2535 0 0 0 1259.48 pippo 1259.48
ODOM -0.317502 -1.86822 -2.2638 0 0 0 1259.54 pippo 1259.54
ODOM -0.319027 -1.87259 -2.27931 0 0 0 1259.62 pippo 1259.62
ODOM -0.322235 -1.87499 -2.2916 0 0 0 1259.67 pippo 1259.67
ODOM -0.322255 -1.87645 -2.30165 0 0 0 1259.73 pippo 1259.73
ODOM -0.323522 -1.87985 -2.3113 0 0 0 1259.78 pippo 1259.78
ODOM -0.325706 -1.87885 -2.32623 0 0 0 1259.86 pippo 1259.86
ODOM -0.324248 -1.87936 -2.33657 0 0 0 1259.91 pippo 1259.91
ODOM -0.322363 -1.88427 -2.34886 0 0 0 1259.97 pippo 1259.97
FLASER 361 3.72 3.75 3.8 3.83 3.87 3.9 3.96 3.98 4.04 4.06 4.12 4.16 4.26 5.41 5.35 5.33 5.28 5.25 5.19 5.17 5.12 5.11 5.27 81.87 5.08 5.08 5.09 5.13 5.21 5.28 5.39 5.45 5.57 5.64 5.78 5.88 5.98 6.07 6.22 6.31 6.49 6.58 6.76 6.87 7.06 7.18 7.4 7.55 7.77 7.92 8.2 8.39 8.65 8.84 9.31 9.95 10.17 10.22 10.46 10.73 11.23 11.56 4.63 4.58 4.52 4.51 4.47 4.46 4.44 4.43 4.42 4.42 4.41 4.41 4.4 4.4 4.39 4.39 4.38 4.38 4.38 4.38 4.38 4.38 4.38 4.38 4.38 4.38 2.47 2.48 1.32 1.3 1.3 1.3 1.29 1.29 1.3 1.3 1.3 1.3 1.31 1.31 1.31 1.32 1.32 1.32 1.33 1.33 1.33 1.33 1.34 1.34 1.34 1.34 1.35 1.35 1.35 1.35 1.36 1.36 1.37 1.37 1.38 1.38 1.38 1.39 1.39 1.4 1.41 1.41 1.42 1.42 1.42 1.42 1.42 1.43 1.44 1.44 1.45 1.46 1.47 1.47 1.48 1.48 1.49 1.49 1.5 1.51 1.52 1.53 1.62 1.61 1.57 1.56 1.54 1.52 1.5 1.49 1.46 1.44 1.43 1.42 1.39 1.38 1.36 1.35 1.34 1.33 1.31 1.3 1.28 1.28 1.26 1.26 1.24 1.24 1.22 1.22 1.2 1.19 1.18 1.17 1.16 1.16 1.15 1.14 1.14 1.14 1.15 1.15 1.16 1.17 81.87 1.11 81.87 1.14 1.16 1.16 1.16 1.18 1.24 1.51 1.92 1.32 1.23 1.22 1.23 1.23 1.25 1.26 1.28 1.29 1.32 1.34 1.36 1.37 1.41 1.42 1.45 1.47 1.5 1.52 1.55 1.56 1.6 1.63 1.67 1.7 1.74 1.77 1.82 1.85 1.9 1.94 1.99 2.03 3.16 3.23 3.38 3.22 3.19 3.19 3.18 3.17 3.16 3.16 3.15 3.14 3.15 3.14 3.14 3.14 3.14 3.14 3.13 3.13 3.12 3.13 3.12 3.13 3.56 3.53 2.75 2.75 2.75 2.74 2.73 2.73 2.74 2.72 2.73 2.73 2.72 2.72 2.72 2.72 2.72 2.72 2.72 2.71 2.77 7.47 7.34 7.31 7.29 5.62 5.52 5.46 5.35 5.28 5.45 5.43 4.81 4.77 0.98 0.99 0.99 0.98 0.92 0.94 0.96 81.87 0.95 0.95 0.94 0.93 0.92 0.93 0.93 0.93 0.94 0.94 0.94 0.94 0.94 0.94 0.95 0.94 0.96 0.95 0.96 0.96 0.97 0.97 0.98 0.98 0.99 0.99 0.99 0.99 1 1.01 1.02 1.02 1.03 1.03 1.05 1.05 1.06 1.06 1.06 1.07 1.08 1.09 1.1 1.1 1.12 1.12 1.13 1.14 1.15 1.15 1.16 1.17 1.18 1.19 1.2 1.21 1.22 1.23 1.24 -0.316875 -1.89427 -2.35042 -0.316875 -1.89427 -2.35042 1259.97 pippo 1259.97
ODOM -0.316875 -1.89427 -2.35042 0 0 0 0 pippo 0
NEFF 48.9781
ODOM -0.327203 -1.89899 -2.3711 0 0 0 1260.1 pippo 1260.1
ODOM -0.33181 -1.89697 -2.38115 0 0 0 1260.16 pippo 1260.16
ODOM -0.331664 -1.90332 -2.39161 0 0 0 1260.21 pippo 1260.21
ODOM -0.334961 -1.91132 -2.40341 0 0 0 1260.26 pippo 1260.26
ODOM -0.338364 -1.9103 -2.41542 0 0 0 1260.34 pippo 1260.34
ODOM -0.34503 -1.91508 -2.42478 0 0 0 1260.39 pippo 1260.39
ODOM -0.342787 -1.91218 -2.43316 0 0 0 1260.45 pippo 1260.45
ODOM -0.34385 -1.91778 -2.44484 0 0 0 1260.5 pippo 1260.5
ODOM -0.347737 -1.9165 -2.46104 0 0 0 1260.58 pippo 1260.58
ODOM -0.347106 -1.9231 -2.47109 0 0 0 1260.63 pippo 1260.63
ODOM -0.346626 -1.9236 -2.48147 0 0 0 1260.69 pippo 1260.69
ODOM -0.34877 -1.92015 -2.4875 0 0 0 1260.74 pippo 1260.74
ODOM -0.362699 -1.92091 -2.50101 0 0 0 1260.82 pippo 1260.82
ODOM -0.357535 -1.93442 -2.5133 0 0 0 1260.87 pippo 1260.87
ODOM -0.368032 -1.93426 -2.52286 0 0 0 1260.93 pippo 1260.93
ODOM -0.366811 -1.93428 -2.52913 0 0 0 1260.98 pippo 1260.98
ODOM -0.375573 -1.93243 -2.54215 0 0 0 1261.06 pippo 1261.06
ODOM -0.370863 -1.94374 -2.55445 0 0 0 1261.12 pippo 1261.12
ODOM -0.376884 -1.93827 -2.56283 0 0 0 1261.17 pippo 1261.17
ODOM -0.377987 -1.94656 -2.57219 0 0 0 1261.22 pippo 1261.22
ODOM -0.378021 -1.94875 -2.58517 0 0 0 1261.3 pippo 1261.3
ODOM -0.385623 -1.95083 -2.59539 0 0 0 1261.36 pippo 1261.36
ODOM -0.387204 -1.94251 -2.60129 0 0 0 1261.41 pippo 1261.41
ODOM -0.387786 -1.9486 -2.61163 0 0 0 1261.46 pippo 1261.46
ODOM -0.389209 -1.9459 -2.62392 0 0 0 1261.54 pippo 1261.54
ODOM -0.38877 -1.94908 -2.63006 0 0 0 1261.59 pippo 1261.59
ODOM -0.397002 -1.94456 -2.63816 0 0 0 1261.65 pippo 1261.65
ODOM -0.39669 -1.95604 -2.6485 0 0 0 1261.7 pippo 1261.7
ODOM -0.397948 -1.95846 -2.66246 0 0 0 1261.78 pippo 1261.78
ODOM -0.402357 -1.95937 -2.67133 0 0 0 1261.83 pippo 1261.83
ODOM -0.405992 -1.9576 -2.67581 0 0 0 1261.89 pippo 1261.89
ODOM -0.411416 -1.96094 -2.68627 0 0 0 1261.94 pippo 1261.94
ODOM -0.411694 -1.96313 -2.69848 0 0 0 1262.02 pippo 1262.02
ODOM -0.408528 -1.96367 -2.70491 0 0 0 1262.08 pippo 1262.08
ODOM -0.410965 -1.96339 -2.71496 0 0 0 1262.13 pippo 1262.13
ODOM -0.413943 -1.96651 -2.72335 0 0 0 1262.18 pippo 1262.18
ODOM -0.414856 -1.96235 -2.7334 0 0 0 1262.26 pippo 1262.26
ODOM -0.420309 -1.96764 -2.74337 0 0 0 1262.32 pippo 1262.32
ODOM -0.420782 -1.96665 -2.75175 0 0 0 1262.37 pippo 1262.37
ODOM -0.420579 -1.96934 -2.75973 0 0 0 1262.42 pippo 1262.42
ODOM -0.431789 -1.96795 -2.77202 0 0 0 1262.5 pippo 1262.5
ODOM -0.435237 -1.96985 -2.78041 0 0 0 1262.55 pippo 1262.55
ODOM -0.437445 -1.97055 -2.78753 0 0 0 1262.61 pippo 1262.61
ODOM -0.438591 -1.96565 -2.79612 0 0 0 1262.66 pippo 1262.66
ODOM -0.443308 -1.9707 -2.81036 0 0 0 1262.74 pippo 1262.74
ODOM -0.443338 -1.97266 -2.8207 0 0 0 1262.79 pippo 1262.79
ODOM -0.451048 -1.96594 -2.82684 0 0 0 1262.85 pippo 1262.85
ODOM -0.448231 -1.97331 -2.83816 0 0 0 1262.9 pippo 1262.9
ODOM -0.450158 -1.97157 -2.85045 0 0 0 1262.98 pippo 1262.98
FLASER 361 2.77 2.77 2.78 2.79 2.8 2.81 2.82 2.82 2.83 2.85 2.85 2.86 2.88 2.88 2.9 2.91 2.93 2.94 2.96 2.97 2.97 2.99 3.03 3.04 3.04 3.05 3.07 3.08 3.1 3.11 3.13 3.15 3.16 3.17 3.21 3.23 3.25 3.26 3.3 3.31 3.34 3.36 3.38 3.41 3.44 3.46 3.49 3.51 3.57 3.58 3.6 3.63 3.66 3.69 3.73 3.75 3.79 3.82 3.86 3.88 3.94 3.96 4.02 4.05 4.1 4.14 4.26 5.4 5.34 5.31 5.27 5.23 5.18 5.15 5.11 5.09 5.09 5.22 5.04 5.04 5.05 5.04 5.1 5.15 5.25 5.31 5.41 5.47 5.6 5.65 5.8 5.85 5.99 6.07 6.21 6.31 6.48 6.58 6.73 6.84 7.03 7.14 7.34 7.47 7.69 7.82 8.09 8.23 8.51 8.68 9.01 9.59 10.08 10.1 10.17 10.42 10.92 4.59 4.47 4.45 4.41 4.38 4.37 4.35 4.32 4.32 4.32 4.31 4.3 4.3 4.29 4.29 4.28 4.28 4.27 4.27 4.27 4.27 4.27 4.28 1.18 1.18 1.18 1.18 1.18 1.18 1.18 1.17 1.18 1.18 1.18 1.18 1.18 1.18 1.19 1.18 1.19 1.19 1.19 1.19 1.2 1.2 1.2 1.2 1.2 1.2 1.2 1.21 1.21 1.21 1.22 1.23 1.22 1.22 1.23 1.23 1.23 1.24 1.24 1.25 1.25 1.25 1.25 1.25 1.26 1.26 1.27 1.27 1.28 1.28 1.29 1.29 1.3 1.3 1.31 1.32 1.32 1.33 1.33 1.34 1.34 1.34 1.36 1.36 1.37 1.38 1.39 1.47 1.44 1.43 1.41 1.39 1.37 1.36 1.34 1.33 1.31 1.3 1.28 1.26 1.25 1.24 1.22 1.22 1.2 1.19 1.17 1.15 1.15 1.14 1.14 1.13 1.12 1.1 1.09 1.09 1.07 1.06 1.06 1.05 1.04 1.03 1.02 1.02 1.01 1 0.99 0.99 0.99 0.99 1 1.01 1.03 1.01 81.87 0.96 81.87 1.01 1.03 1.02 1.02 1 81.87 1.11 1.64 1.83 1.16 1.1 1.09 1.08 1.09 1.11 1.13 1.14 1.16 1.17 1.21 1.22 1.24 1.25 1.28 1.3 1.33 1.35 1.39 1.4 1.45 1.46 1.5 1.52 1.57 1.59 1.64 1.68 1.73 1.76 1.81 1.85 2.04 3.28 3.11 3.07 3.07 3.06 3.05 3.06 3.05 3.06 3.05 3.05 3.04 3.04 3.04 3.04 3.04 3.04 3.04 3.03 3.03 3.03 3.02 3.02 3.46 4.11 2.66 2.65 2.67 2.67 2.67 2.67 2.67 2.67 2.66 2.66 2.65 2.66 2.65 2.65 2.66 2.66 2.65 2.65 2.63 2.63 7.32 5.55 81.87 5.52 5.46 5.23 5.42 5.4 5.22 4.79 4.71 4.69 4.69 4.69 4.69 4.71 4.72 -0.43924 -1.98311 -2.8567 -0.43924 -1.98311 -2.8567 1262.98 pippo 1262.98
ODOM -0.43924 -1.98311 -2.8567 0 0 0 0 pippo 0
NEFF 48.0119
ODOM -0.442024 -1.98769 -2.87709 0 0 0 1263.09 pippo 1263.09
ODOM -0.443298 -1.99011 -2.88743 0 0 0 1263.14 pippo 1263.14
ODOM -0.450307 -1.98678 -2.90021 0 0 0 1263.22 pippo 1263.22
ODOM -0.453274 -1.98843 -2.91054 0 0 0 1263.28 pippo 1263.28
ODOM -0.457656 -1.98784 -2.91974 0 0 0 1263.33 pippo 1263.33
ODOM -0.458654 -1.9888 -2.92861 0 0 0 1263.38 pippo 1263.38
ODOM -0.464426 -1.996 -2.94355 0 0 0 1263.46 pippo 1263.46
ODOM -0.468772 -1.99371 -2.95242 0 0 0 1263.52 pippo 1263.52
ODOM -0.47237 -1.9907 -2.95881 0 0 0 1263.57 pippo 1263.57
ODOM -0.475686 -1.99722 -2.96398 0 0 0 1263.62 pippo 1263.62
ODOM -0.475855 -2.00503 -2.96915 0 0 0 1263.7 pippo 1263.7
ODOM -0.478539 -2.00498 -2.97334 0 0 0 1263.76 pippo 1263.76
ODOM -0.484642 -2.00484 -2.97725 0 0 0 1263.81 pippo 1263.81
ODOM -0.492966 -2.00588 -2.98339 0 0 0 1263.86 pippo 1263.86
ODOM -0.494494 -2.00878 -2.98466 0 0 0 1263.94 pippo 1263.94
ODOM -0.500354 -1.99742 -2.98539 0 0 0 1264 pippo 1264
ODOM -0.501069 -2.00791 -2.99153 0 0 0 1264.05 pippo 1264.05
ODOM -0.512753 -2.00619 -2.99349 0 0 0 1264.1 pippo 1264.1
ODOM -0.508656 -2.00872 -2.99524 0 0 0 1264.16 pippo 1264.16
ODOM -0.520989 -2.00308 -2.9956 0 0 0 1264.24 pippo 1264.24
ODOM -0.523207 -2.00401 -2.99597 0 0 0 1264.29 pippo 1264.29
ODOM -0.528359 -2.00512 -2.99792 0 0 0 1264.34 pippo 1264.34
ODOM -0.529824 -2.00509 -3 0 0 0 1264.42 pippo 1264.42
ODOM -0.530963 -2.01263 -3.00126 0 0 0 1264.48 pippo 1264.48
ODOM -0.53487 -2.00132 -3.00102 0 0 0 1264.53 pippo 1264.53
ODOM -0.536647 -2.00445 -3.00297 0 0 0 1264.58 pippo 1264.58
ODOM -0.54017 -2.00926 -3.00492 0 0 0 1264.66 pippo 1264.66
ODOM -0.545545 -2.00939 -3.00578 0 0 0 1264.72 pippo 1264.72
ODOM -0.550144 -2.01881 -3.00826 0 0 0 1264.77 pippo 1264.77
ODOM -0.564822 -2.00873 -3.00826 0 0 0 1264.82 pippo 1264.82
ODOM -0.565888 -2.01286 -3.00826 0 0 0 1264.9 pippo 1264.9
ODOM -0.560369 -2.01737 -3.01022 0 0 0 1264.96 pippo 1264.96
ODOM -0.567549 -2.01062 -3.01009 0 0 0 1265.01 pippo 1265.01
ODOM -0.575801 -2.00825 -3.01009 0 0 0 1265.06 pippo 1265.06
ODOM -0.584216 -2.01344 -3.01209 0 0 0 1265.12 pippo 1265.12
ODOM -0.594409 -2.01053 -3.01209 0 0 0 1265.2 pippo 1265.2
ODOM -0.595538 -2.01759 -3.01502 0 0 0 1265.25 pippo 1265.25
ODOM -0.605949 -2.01345 -3.01514 0 0 0 1265.3 pippo 1265.3
ODOM -0.610273 -2.02142 -3.01905 0 0 0 1265.38 pippo 1265.38
ODOM -0.616275 -2.01665 -3.01775 0 0 0 1265.44 pippo 1265.44
ODOM -0.618509 -2.01831 -3.01823 0 0 0 1265.49 pippo 1265.49
ODOM -0.621863 -2.01531 -3.01836 0 0 0 1265.54 pippo 1265.54
ODOM -0.634618 -2.01796 -3.02226 0 0 0 1265.62 pippo 1265.62
ODOM -0.638146 -2.02302 -3.02373 0 0 0 1265.68 pippo 1265.68
ODOM -0.639611 -2.02298 -3.02336 0 0 0 1265.73 pippo 1265.73
ODOM -0.646933 -2.02283 -3.02446 0 0 0 1265.78 pippo 1265.78
ODOM -0.658219 -2.02527 -3.02963 0 0 0 1265.86 pippo 1265.86
ODOM -0.659954 -2.02645 -3.03577 0 0 0 1265.92 pippo 1265.92
ODOM -0.664751 -2.02244 -3.04167 0 0 0 1265.97 pippo 1265.97
ODOM -0.666581 -2.02802 -3.05201 0 0 0 1266.02 pippo 1266.02
ODOM -0.680813 -2.0199 -3.06206 0 0 0 1266.08 pippo 1266.08
ODOM -0.683349 -2.02424 -3.08245 0 0 0 1266.16 pippo 1266.16
ODOM -0.685997 -2.02247 -3.0967 0 0 0 1266.21 pippo 1266.21
ODOM -0.686538 -2.0249 -3.11094 0 0 0 1266.26 pippo 1266.26
ODOM -0.697743 -2.03491 -3.1245 0 0 0 1266.32 pippo 1266.32
ODOM -0.705496 -2.03206 3.13858 0 0 0 1266.4 pippo 1266.4
ODOM -0.708848 -2.04029 3.1221 0 0 0 1266.45 pippo 1266.45
ODOM -0.704186 -2.02794 3.11099 0 0 0 1266.5 pippo 1266.5
ODOM -0.71735 -2.02692 3.09089 0 0 0 1266.58 pippo 1266.58
ODOM -0.722566 -2.03096 3.07469 0 0 0 1266.64 pippo 1266.64
ODOM -0.736925 -2.0287 3.06182 0 0 0 1266.69 pippo 1266.69
ODOM -0.736309 -2.02285 3.04941 0 0 0 1266.74 pippo 1266.74
ODOM -0.746312 -2.02239 3.02878 0 0 0 1266.82 pippo 1266.82
ODOM -0.748917 -2.0299 3.01307 0 0 0 1266.88 pippo 1266.88
ODOM -0.757667 -2.028 3.00078 0 0 0 1266.93 pippo 1266.93
ODOM -0.75496 -2.02708 2.98653 0 0 0 1266.98 pippo 1266.98
ODOM -0.760441 -2.03209 2.972 0 0 0 1267.04 pippo 1267.04
ODOM -0.77265 -2.03207 2.95023 0 0 0 1267.12 pippo 1267.12
ODOM -0.771506 -2.02428 2.94115 0 0 0 1267.17 pippo 1267.17
ODOM -0.774836 -2.03154 2.92662 0 0 0 1267.22 pippo 1267.22
FLASER 361 2.87 2.87 2.87 2.86 2.86 2.85 2.85 2.85 2.83 2.84 2.83 2.82 2.83 2.82 2.82 2.83 2.83 2.83 2.82 2.82 2.82 2.82 2.81 2.81 2.81 2.82 2.82 2.83 2.83 2.83 2.79 2.76 2.73 2.73 2.7 2.7 2.71 2.71 2.72 2.72 2.73 2.73 2.74 2.74 2.75 2.75 2.76 2.76 2.76 2.77 2.78 2.78 2.79 2.8 2.81 2.82 2.82 2.82 2.83 2.83 2.85 2.85 2.87 2.87 2.88 2.89 2.93 2.94 2.94 2.94 2.95 2.96 2.97 2.98 3 3.01 3.03 3.04 3.06 3.07 3.08 3.09 3.12 3.13 3.15 3.16 3.18 3.2 3.23 3.24 3.26 3.28 3.31 3.31 3.34 3.36 3.41 3.41 3.42 3.44 3.48 3.49 3.53 3.55 3.58 3.6 3.65 3.66 3.71 3.72 3.77 3.8 3.84 3.87 3.91 3.93 5.27 5.26 5.19 5.16 5.1 5.07 5.01 4.98 4.93 4.89 4.84 4.82 5.03 4.84 4.78 4.75 4.8 4.79 4.87 4.92 5 5.04 5.14 5.18 5.29 5.34 5.45 5.53 5.62 5.67 5.81 5.87 6.01 6.07 6.23 6.35 6.47 6.55 6.73 6.8 7 7.12 7.33 7.42 7.66 7.77 8.05 8.15 8.44 8.58 9.41 9.57 9.78 9.8 4.33 4.23 4.15 4.13 4.08 4.06 4.04 4.02 4.02 4.01 4 3.99 3.98 3.98 3.97 3.97 3.97 3.96 0.85 0.85 0.85 0.85 0.85 0.85 0.85 0.85 0.85 0.85 0.85 0.85 0.85 0.85 0.85 0.85 0.85 0.85 0.85 0.85 0.85 0.84 0.85 0.85 0.85 0.85 0.85 0.86 0.86 0.86 0.86 0.86 0.87 0.86 0.87 0.87 0.87 0.87 0.88 0.88 0.88 0.89 0.89 0.89 0.89 0.89 0.89 0.9 0.9 0.9 0.9 0.91 0.91 0.91 0.92 0.92 0.92 0.92 0.93 0.92 0.93 0.94 0.94 0.94 0.95 0.96 0.97 0.96 0.97 0.97 0.98 0.98 0.98 0.98 1 1 1.01 1.01 1.02 1.03 1.04 1.04 1.05 1.05 1.06 1.05 1.07 1.07 1.08 1.1 1.15 1.14 1.13 1.12 1.12 1.1 1.09 1.08 1.07 1.06 1.05 1.05 1.03 1.03 1.01 1.01 0.99 0.99 0.98 0.98 0.96 0.96 0.95 0.94 0.93 0.93 0.92 0.92 0.91 0.91 0.9 0.89 0.89 0.88 0.88 0.87 0.86 0.86 0.85 0.85 0.84 0.84 0.84 0.84 0.83 0.83 0.83 0.82 0.82 0.81 0.81 0.81 0.8 0.8 0.8 0.8 0.79 0.79 0.78 0.78 0.78 0.78 0.79 0.8 0.82 0.81 0.81 0.81 0.81 81.87 0.79 0.8 0.83 0.84 0.84 0.84 0.93 2.66 0.96 0.94 0.94 0.93 0.92 -0.787348 -2.03323 2.92662 -0.787348 -2.03323 2.92662 1267.22 pippo 1267.22
ODOM -0.787348 -2.03323 2.92662 0 0 0 0 pippo 0
NEFF 47.7028
ODOM -0.800302 -2.02245 2.89374 0 0 0 1267.36 pippo 1267.36
ODOM -0.799644 -2.02588 2.87921 0 0 0 1267.41 pippo 1267.41
ODOM -0.80703 -2.02865 2.86448 0 0 0 1267.46 pippo 1267.46
ODOM -0.813743 -2.02289 2.84604 0 0 0 1267.54 pippo 1267.54
ODOM -0.813021 -2.0234 2.83314 0 0 0 1267.6 pippo 1267.6
ODOM -0.822158 -2.02808 2.81694 0 0 0 1267.65 pippo 1267.65
ODOM -0.821436 -2.02859 2.80241 0 0 0 1267.7 pippo 1267.7
ODOM -0.82817 -2.0238 2.78438 0 0 0 1267.78 pippo 1267.78
ODOM -0.832469 -2.01931 2.77083 0 0 0 1267.84 pippo 1267.84
ODOM -0.827301 -2.01747 2.75854 0 0 0 1267.89 pippo 1267.89
ODOM -0.838666 -2.02358 2.74234 0 0 0 1267.94 pippo 1267.94
ODOM -0.838327 -2.01919 2.72976 0 0 0 1268 pippo 1268
ODOM -0.845379 -2.01781 2.70966 0 0 0 1268.08 pippo 1268.08
ODOM -0.849289 -2.01797 2.69415 0 0 0 1268.13 pippo 1268.13
ODOM -0.852771 -2.0096 2.68215 0 0 0 1268.18 pippo 1268.18
ODOM -0.853068 -2.01203 2.66928 0 0 0 1268.24 pippo 1268.24
ODOM -0.860327 -2.00894 2.64987 0 0 0 1268.32 pippo 1268.32
ODOM -0.86576 -2.01176 2.63591 0 0 0 1268.37 pippo 1268.37
ODOM -0.87087 -2.01091 2.62334 0 0 0 1268.42 pippo 1268.42
ODOM -0.876861 -2.00566 2.61288 0 0 0 1268.48 pippo 1268.48
ODOM -0.876803 -2.00297 2.59863 0 0 0 1268.56 pippo 1268.56
ODOM -0.886228 -1.99837 2.58646 0 0 0 1268.61 pippo 1268.61
ODOM -0.893715 -1.99455 2.58032 0 0 0 1268.66 pippo 1268.66
ODOM -0.896904 -1.99521 2.57193 0 0 0 1268.72 pippo 1268.72
ODOM -0.899914 -1.98758 2.56444 0 0 0 1268.8 pippo 1268.8
ODOM -0.904722 -1.98405 2.5583 0 0 0 1268.85 pippo 1268.85
ODOM -0.918826 -1.98131 2.55215 0 0 0 1268.9 pippo 1268.9
ODOM -0.923284 -1.97291 2.55228 0 0 0 1268.96 pippo 1268.96
ODOM -0.924155 -1.968 2.55228 0 0 0 1269.04 pippo 1269.04
ODOM -0.933085 -1.96317 2.55264 0 0 0 1269.09 pippo 1269.09
ODOM -0.938849 -1.95865 2.55264 0 0 0 1269.14 pippo 1269.14
ODOM -0.942951 -1.95636 2.55264 0 0 0 1269.2 pippo 1269.2
ODOM -0.951934 -1.95397 2.55081 0 0 0 1269.28 pippo 1269.28
ODOM -0.962557 -1.94837 2.55081 0 0 0 1269.33 pippo 1269.33
ODOM -0.966347 -1.94292 2.55081 0 0 0 1269.38 pippo 1269.38
ODOM -0.975331 -1.94053 2.55081 0 0 0 1269.44 pippo 1269.44
ODOM -0.983673 -1.93106 2.55081 0 0 0 1269.52 pippo 1269.52
ODOM -0.991102 -1.92456 2.54983 0 0 0 1269.57 pippo 1269.57
ODOM -0.997242 -1.92613 2.54935 0 0 0 1269.62 pippo 1269.62
ODOM -1.00571 -1.92253 2.54886 0 0 0 1269.68 pippo 1269.68
ODOM -1.00992 -1.91414 2.54886 0 0 0 1269.76 pippo 1269.76
ODOM -1.01817 -1.91152 2.54898 0 0 0 1269.81 pippo 1269.81
ODOM -1.02235 -1.90166 2.54898 0 0 0 1269.86 pippo 1269.86
ODOM -1.0271 -1.90668 2.5419 0 0 0 1269.92 pippo 1269.92
ODOM -1.03077 -1.89561 2.52521 0 0 0 1270 pippo 1270
ODOM -1.04093 -1.89124 2.50613 0 0 0 1270.05 pippo 1270.05
ODOM -1.04845 -1.88888 2.48989 0 0 0 1270.1 pippo 1270.1
ODOM -1.05012 -1.88689 2.47271 0 0 0 1270.16 pippo 1270.16
ODOM -1.06298 -1.88344 2.45037 0 0 0 1270.23 pippo 1270.23
ODOM -1.06309 -1.87685 2.43364 0 0 0 1270.29 pippo 1270.29
ODOM -1.07025 -1.86937 2.41923 0 0 0 1270.34 pippo 1270.34
FLASER 361 3.26 3.25 3.22 3.2 3.17 3.17 3.14 3.12 3.09 3.08 3.06 3.06 3.06 3.04 2.98 2.97 2.96 2.95 2.92 2.92 2.89 2.88 2.88 2.87 2.85 2.84 2.81 2.82 2.8 2.8 2.78 2.77 2.76 2.76 2.74 2.75 2.78 81.87 2.79 2.8 2.84 2.83 2.82 2.82 2.81 2.8 2.8 2.79 2.78 2.77 2.76 2.76 2.75 2.75 2.74 2.73 2.73 2.73 2.72 2.72 2.71 2.7 2.7 2.7 2.7 2.69 2.69 2.68 2.68 2.68 2.67 2.67 2.67 2.67 2.68 2.68 2.62 2.57 2.57 2.57 2.54 2.54 2.54 2.53 2.53 2.53 2.53 2.53 2.54 2.54 2.54 2.54 2.55 2.55 2.56 2.55 2.57 2.57 2.58 2.58 2.59 2.58 2.59 2.59 2.59 2.6 2.61 2.61 2.62 2.62 2.64 2.64 2.65 2.65 2.67 2.66 2.7 2.7 2.69 2.69 2.71 2.71 2.74 2.73 2.75 2.75 2.76 2.78 2.78 2.79 2.81 2.81 2.83 2.84 2.86 2.87 2.88 2.89 2.91 2.92 2.95 2.96 2.97 2.98 3.01 3.01 3.05 3.05 3.09 3.11 3.12 3.13 3.16 3.17 3.2 3.21 3.24 3.25 3.29 3.31 3.34 3.35 3.39 3.4 3.44 3.46 3.5 3.52 3.56 3.57 3.62 3.64 4.99 4.96 4.89 4.87 4.8 4.78 4.72 4.7 4.64 4.61 4.56 4.54 4.5 4.58 81.87 4.47 4.44 4.49 4.47 4.51 4.6 4.61 4.71 4.75 4.84 4.87 4.98 5.03 5.13 5.2 5.28 5.33 5.46 5.51 5.65 5.71 5.86 5.92 6.08 6.14 6.32 6.39 6.59 6.66 6.87 6.96 7.2 7.29 7.54 7.67 7.93 8.05 8.37 8.58 9.42 9.45 9.49 9.6 4.02 3.94 3.85 3.84 3.79 3.77 3.73 3.72 3.7 3.7 3.69 3.69 3.68 3.68 3.67 3.67 3.67 3.66 3.67 3.66 3.65 3.65 3.65 3.65 3.65 3.65 3.65 3.65 3.65 3.65 3.65 3.65 1.77 1.73 1.74 1.69 1.32 1.27 1.15 1.1 0.59 0.57 0.58 0.58 0.57 0.57 0.57 0.57 0.57 0.57 0.58 0.58 0.58 0.58 0.58 0.58 0.58 0.58 0.58 0.58 0.59 0.58 0.59 0.59 0.59 0.6 0.6 0.6 0.6 0.6 0.61 0.61 0.61 0.61 0.62 0.62 0.62 0.62 0.63 0.63 0.63 0.63 0.62 0.63 0.64 0.63 0.64 0.64 0.65 0.65 0.65 0.65 0.66 0.66 0.67 0.68 0.68 0.68 0.68 0.68 0.69 0.69 0.7 0.7 0.72 0.72 0.73 0.73 0.74 0.74 0.75 0.74 0.76 0.76 0.78 0.77 0.79 0.79 0.8 0.8 0.82 0.82 0.83 0.83 0.84 0.85 0.86 0.86 0.87 0.87 0.89 -1.05751 -1.86937 2.41923 -1.05751 -1.86937 2.41923 1270.34 pippo 1270.34
ODOM -1.05751 -1.86937 2.41923 0 0 0 0 pippo 0
NEFF 47.1456
ODOM -1.06657 -1.85916 2.38252 0 0 0 1270.48 pippo 1270.48
ODOM -1.07071 -1.85859 2.36633 0 0 0 1270.53 pippo 1270.53
ODOM -1.07889 -1.85304 2.35204 0 0 0 1270.58 pippo 1270.58
ODOM -1.08448 -1.85194 2.33556 0 0 0 1270.64 pippo 1270.64
ODOM -1.09766 -1.84042 2.31309 0 0 0 1270.72 pippo 1270.72
ODOM -1.09803 -1.83455 2.29632 0 0 0 1270.77 pippo 1270.77
ODOM -1.09812 -1.82771 2.28354 0 0 0 1270.82 pippo 1270.82
ODOM -1.10201 -1.82665 2.27349 0 0 0 1270.88 pippo 1270.88
ODOM -1.10743 -1.8175 2.26108 0 0 0 1270.96 pippo 1270.96
ODOM -1.10401 -1.81782 2.25282 0 0 0 1271.01 pippo 1271.01
ODOM -1.12097 -1.81159 2.24276 0 0 0 1271.06 pippo 1271.06
ODOM -1.12158 -1.80596 2.23662 0 0 0 1271.12 pippo 1271.12
ODOM -1.13242 -1.79889 2.22433 0 0 0 1271.2 pippo 1271.2
ODOM -1.13854 -1.78826 2.21818 0 0 0 1271.25 pippo 1271.25
ODOM -1.13941 -1.78335 2.21204 0 0 0 1271.3 pippo 1271.3
ODOM -1.14229 -1.78109 2.20267 0 0 0 1271.36 pippo 1271.36
ODOM -1.14172 -1.76572 2.19926 0 0 0 1271.44 pippo 1271.44
ODOM -1.14914 -1.75897 2.19702 0 0 0 1271.49 pippo 1271.49
ODOM -1.15384 -1.75056 2.19519 0 0 0 1271.54 pippo 1271.54
ODOM -1.15077 -1.74379 2.19494 0 0 0 1271.6 pippo 1271.6
ODOM -1.16538 -1.73078 2.19165 0 0 0 1271.68 pippo 1271.68
ODOM -1.17237 -1.72672 2.19165 0 0 0 1271.73 pippo 1271.73
ODOM -1.17313 -1.71669 2.1914 0 0 0 1271.78 pippo 1271.78
ODOM -1.175 -1.7125 2.19116 0 0 0 1271.84 pippo 1271.84
ODOM -1.1818 -1.69965 2.19116 0 0 0 1271.92 pippo 1271.92
ODOM -1.1894 -1.68948 2.19079 0 0 0 1271.97 pippo 1271.97
ODOM -1.19709 -1.68394 2.18933 0 0 0 1272.02 pippo 1272.02
ODOM -1.20344 -1.67257 2.18945 0 0 0 1272.08 pippo 1272.08
ODOM -1.20876 -1.67026 2.18872 0 0 0 1272.16 pippo 1272.16
ODOM -1.20937 -1.66463 2.18847 0 0 0 1272.21 pippo 1272.21
ODOM -1.22071 -1.65828 2.1886 0 0 0 1272.26 pippo 1272.26
ODOM -1.22471 -1.65111 2.1886 0 0 0 1272.32 pippo 1272.32
ODOM -1.2235 -1.64063 2.18884 0 0 0 1272.4 pippo 1272.4
ODOM -1.23359 -1.63285 2.18884 0 0 0 1272.45 pippo 1272.45
ODOM -1.24613 -1.62525 2.18884 0 0 0 1272.5 pippo 1272.5
ODOM -1.24571 -1.61744 2.19299 0 0 0 1272.56 pippo 1272.56
ODOM -1.25428 -1.607 2.20206 0 0 0 1272.64 pippo 1272.64
ODOM -1.25508 -1.59893 2.21045 0 0 0 1272.69 pippo 1272.69
ODOM -1.26537 -1.58894 2.21896 0 0 0 1272.74 pippo 1272.74
ODOM -1.27164 -1.58538 2.22705 0 0 0 1272.8 pippo 1272.8
ODOM -1.27727 -1.575 2.25554 0 0 0 1272.88 pippo 1272.88
ODOM -1.2816 -1.57173 2.27731 0 0 0 1272.93 pippo 1272.93
ODOM -1.27647 -1.56037 2.30035 0 0 0 1272.98 pippo 1272.98
ODOM -1.28929 -1.55472 2.32278 0 0 0 1273.04 pippo 1273.04
ODOM -1.29757 -1.54257 2.35407 0 0 0 1273.12 pippo 1273.12
ODOM -1.30509 -1.53997 2.37699 0 0 0 1273.17 pippo 1273.17
ODOM -1.30492 -1.53216 2.39982 0 0 0 1273.22 pippo 1273.22
ODOM -1.31134 -1.52396 2.4244 0 0 0 1273.28 pippo 1273.28
ODOM -1.32174 -1.51934 2.45513 0 0 0 1273.36 pippo 1273.36
ODOM -1.33048 -1.5172 2.47747 0 0 0 1273.41 pippo 1273.41
FLASER 361 2.7 2.67 2.67 2.64 2.64 2.61 2.61 2.59 2.59 2.56 2.56 2.59 2.59 2.55 2.61 2.65 2.66 2.62 2.62 2.6 2.6 2.58 2.58 2.56 2.55 2.53 2.53 2.52 2.51 2.5 2.49 2.48 2.47 2.47 2.46 2.45 2.45 2.43 2.43 2.42 2.42 2.41 2.41 2.4 2.4 2.39 2.39 2.38 2.37 2.36 2.36 2.35 2.35 2.35 2.35 2.24 2.25 2.21 2.2 2.19 2.19 2.19 2.19 2.18 2.18 2.19 2.19 2.19 2.19 2.19 2.19 2.19 2.19 2.19 2.19 2.19 2.19 2.19 2.19 2.19 2.19 2.19 2.19 2.18 2.18 2.19 2.19 2.2 2.2 2.2 2.21 2.21 2.21 2.22 2.22 2.23 2.23 2.24 2.24 2.26 2.26 2.27 2.27 2.27 2.27 2.27 2.28 2.29 2.29 2.3 2.31 2.32 2.33 2.33 2.34 2.35 2.35 2.36 2.37 2.39 2.39 2.41 2.41 2.42 2.43 2.45 2.45 2.47 2.47 2.49 2.5 2.52 2.52 2.54 2.54 2.57 2.58 2.59 2.6 2.63 2.65 2.67 2.67 2.68 2.68 2.71 2.72 2.75 2.75 2.79 2.8 2.82 2.83 2.87 2.88 2.92 2.93 2.97 2.97 3.01 3.03 3.07 3.08 3.12 3.13 3.18 3.19 4.51 4.5 4.43 4.41 4.34 4.33 4.26 4.25 4.2 4.19 4.13 4.11 4.06 4.05 4.22 4.09 4.02 4.04 4.03 4.04 4.06 4.08 4.18 4.2 4.29 4.31 4.43 4.45 4.55 4.59 4.72 4.78 4.86 4.9 5.04 5.07 5.24 5.28 5.45 5.49 5.68 5.71 5.91 5.96 6.2 6.24 6.49 6.56 6.84 6.9 7.2 7.3 7.62 7.7 8.17 8.77 9.08 9.08 9.3 9.39 10 10.14 10.87 10.99 3.72 3.67 3.54 3.52 3.47 3.45 3.41 3.4 3.38 3.38 3.36 3.36 3.35 3.35 3.35 3.35 3.34 3.35 3.35 3.35 3.35 3.35 3.33 3.34 3.34 3.35 3.35 3.35 3.35 3.36 3.36 3.36 3.36 3.37 3.37 3.37 3.38 3.38 3.39 3.4 3.41 3.41 3.42 3.42 3.43 3.44 3.45 3.45 3.47 3.47 3.48 3.49 1.49 1.5 1.5 1.46 1.52 1.52 1.52 1.53 1.53 1.53 1.53 1.54 1.32 1.21 1.17 1.14 1.12 1.11 1.09 1.07 1.03 1.03 1.03 1.05 1.03 1.01 1.01 0.99 0.96 0.95 0.93 0.95 0.95 0.95 0.96 0.97 0.97 0.97 0.96 0.95 0.94 81.87 81.87 81.87 1.08 1.08 81.89 1.72 0.78 1.13 1.03 1.03 1.06 1.05 0.86 0.86 0.95 0.95 1.08 1.04 1.03 1.05 81.87 81.87 81.87 0.96 0.99 1.01 1.03 0.95 0.95 1.04 1 0.6 0.55 0.54 0.53 0.52 -1.35859 -1.50937 2.4806 -1.35859 -1.50937 2.4806 1273.41 pippo 1273.41
ODOM -1.35859 -1.50937 2.4806 0 0 0 0 pippo 0
NEFF 46.221
ODOM -1.37391 -1.49322 2.52736 0 0 0 1273.52 pippo 1273.52
ODOM -1.38388 -1.49083 2.55858 0 0 0 1273.6 pippo 1273.6
ODOM -1.39033 -1.4829 2.58292 0 0 0 1273.65 pippo 1273.65
ODOM -1.39589 -1.47987 2.60331 0 0 0 1273.7 pippo 1273.7
ODOM -1.40332 -1.47241 2.62232 0 0 0 1273.76 pippo 1273.76
ODOM -1.41256 -1.47028 2.65442 0 0 0 1273.84 pippo 1273.84
ODOM -1.41131 -1.45541 2.67705 0 0 0 1273.89 pippo 1273.89
ODOM -1.42637 -1.45098 2.69549 0 0 0 1273.94 pippo 1273.94
ODOM -1.42857 -1.45143 2.71763 0 0 0 1274 pippo 1274
ODOM -1.44481 -1.44502 2.74836 0 0 0 1274.08 pippo 1274.08
ODOM -1.45431 -1.44387 2.76679 0 0 0 1274.13 pippo 1274.13
ODOM -1.45602 -1.44384 2.78747 0 0 0 1274.18 pippo 1274.18
ODOM -1.46436 -1.4327 2.80815 0 0 0 1274.24 pippo 1274.24
ODOM -1.47103 -1.42354 2.84001 0 0 0 1274.32 pippo 1274.32
ODOM -1.47998 -1.43192 2.85678 0 0 0 1274.37 pippo 1274.37
ODOM -1.49532 -1.42993 2.87815 0 0 0 1274.42 pippo 1274.42
ODOM -1.50135 -1.42591 2.89658 0 0 0 1274.48 pippo 1274.48
ODOM -1.50843 -1.41259 2.92731 0 0 0 1274.56 pippo 1274.56
ODOM -1.52327 -1.42257 2.94253 0 0 0 1274.61 pippo 1274.61
ODOM -1.52078 -1.40699 2.96223 0 0 0 1274.66 pippo 1274.66
ODOM -1.53086 -1.41047 2.98067 0 0 0 1274.72 pippo 1274.72
FLASER 361 2.12 2.11 2.11 2.11 2.11 2.1 2.1 2.1 2.1 2.1 2.09 2.09 2.09 2.09 2.09 2.09 2.1 2.09 2.09 2.09 2.09 2.1 2.1 2.1 2.1 2.11 2.1 2.11 2.11 2.11 2.11 2.11 2.11 2.12 2.12 2.15 2.16 2.16 2.14 2.14 2.15 2.15 2.16 2.16 2.17 2.17 2.18 2.18 2.18 2.19 2.19 2.2 2.21 2.22 2.22 2.24 2.24 2.25 2.25 2.27 2.27 2.28 2.28 2.3 2.3 2.32 2.32 2.34 2.35 2.36 2.36 2.38 2.39 2.41 2.41 2.43 2.44 2.45 2.46 2.5 2.5 2.5 2.52 2.52 2.53 2.56 2.57 2.59 2.6 2.63 2.64 2.66 2.67 2.7 2.71 2.74 2.75 2.79 2.8 2.82 2.84 2.88 2.88 2.93 2.94 2.97 2.99 4.36 4.37 4.3 4.28 4.21 4.2 4.13 4.12 4.06 4.05 4 3.98 3.93 3.91 3.87 3.87 4.06 3.89 3.84 3.82 3.84 3.85 3.86 3.88 3.96 3.99 4.08 4.11 4.19 4.22 4.32 4.37 4.47 4.5 4.62 4.66 4.78 4.82 4.96 5.01 5.15 5.19 5.41 5.44 5.6 5.64 5.84 5.89 6.12 6.2 6.43 6.51 6.79 6.85 7.14 7.25 7.59 7.69 8.65 8.82 8.93 8.94 9.31 9.48 10.07 10.25 10.95 11.21 5.26 3.56 3.39 3.36 3.3 3.29 3.25 3.24 3.22 3.21 3.19 3.2 3.18 3.18 3.18 3.17 3.17 3.17 3.17 3.17 3.17 3.17 3.17 3.17 3.17 3.18 3.18 3.18 3.18 3.19 3.19 3.2 3.2 3.2 3.21 3.21 3.22 3.22 3.23 3.24 3.24 3.25 3.25 3.26 3.26 3.26 3.27 3.28 3.29 3.3 3.31 3.3 3.32 3.33 3.35 3.35 3.36 3.37 3.39 3.39 3.42 1.41 1.35 1.37 1.36 1.34 1.33 1.34 1.35 1.38 1.4 1.4 1.37 1.41 1.41 1.42 1.41 1.41 1.18 1.1 1.08 1.06 1.04 1.02 1.01 1.01 0.98 0.98 0.96 0.96 0.94 0.93 0.94 0.95 0.94 0.93 0.92 0.92 0.9 0.92 0.88 0.88 0.85 0.84 0.82 0.85 0.88 0.88 0.89 0.9 0.89 0.9 0.87 0.88 1.06 1.03 1.13 1.18 1.15 1.08 1.02 1.02 1.03 1.03 0.98 0.96 0.98 1.01 1.03 1.02 0.93 81.87 0.9 3.78 1 1.07 1.04 1.09 1.08 1.08 0.94 0.87 0.84 0.96 1.02 0.96 0.99 1.01 0.97 1.01 0.91 0.92 0.98 0.92 0.94 0.76 0.84 0.83 0.83 0.81 0.86 0.79 0.87 0.88 0.73 0.6 0.55 0.54 0.54 0.54 0.54 0.54 0.53 0.53 0.52 0.51 0.51 0.51 0.51 0.5 0.57 0.59 0.64 0.66 0.71 0.75 -1.55586 -1.39957 2.98223 -1.55586 -1.39957 2.98223 1274.72 pippo 1274.72
ODOM -1.55586 -1.39957 2.98223 0 0 0 0 pippo 0
NEFF 44.3424
ODOM -1.56154 -1.40313 3.02692 0 0 0 1274.85 pippo 1274.85
ODOM -1.57398 -1.40244 3.04409 0 0 0 1274.91 pippo 1274.91
ODOM -1.57842 -1.40505 3.05638 0 0 0 1274.96 pippo 1274.96
ODOM -1.57559 -1.39679 3.08524 0 0 0 1275.09 pippo 1275.09
ODOM -1.56984 -1.38908 3.10001 0 0 0 1275.22 pippo 1275.22
ODOM -1.57256 -1.39074 3.10001 0 0 0 1275.28 pippo 1275.28
ODOM -1.57159 -1.39124 3.09977 0 0 0 1275.38 pippo 1275.38
ODOM -1.57136 -1.39222 3.09952 0 0 0 1275.44 pippo 1275.44
ODOM -1.57197 -1.38513 3.09562 0 0 0 1275.52 pippo 1275.52
ODOM -1.5825 -1.40107 3.07201 0 0 0 1275.62 pippo 1275.62
ODOM -1.58346 -1.40008 3.03229 0 0 0 1275.76 pippo 1275.76
ODOM -1.57461 -1.39656 2.99094 0 0 0 1275.87 pippo 1275.87
ODOM -1.57938 -1.4043 2.97027 0 0 0 1275.92 pippo 1275.92
ODOM -1.58122 -1.39767 2.94186 0 0 0 1276 pippo 1276
ODOM -1.57367 -1.39853 2.90051 0 0 0 1276.1 pippo 1276.1
ODOM -1.57961 -1.40332 2.88305 0 0 0 1276.16 pippo 1276.16
ODOM -1.58619 -1.40272 2.85489 0 0 0 1276.24 pippo 1276.24
ODOM -1.58823 -1.39316 2.83869 0 0 0 1276.29 pippo 1276.29
ODOM -1.59717 -1.40204 2.8229 0 0 0 1276.34 pippo 1276.34
ODOM -1.60082 -1.40149 2.81158 0 0 0 1276.4 pippo 1276.4
ODOM -1.60334 -1.39144 2.79831 0 0 0 1276.48 pippo 1276.48
ODOM -1.60853 -1.39526 2.78602 0 0 0 1276.53 pippo 1276.53
ODOM -1.61367 -1.39615 2.77422 0 0 0 1276.58 pippo 1276.58
ODOM -1.61623 -1.38878 2.76636 0 0 0 1276.64 pippo 1276.64
ODOM -1.62627 -1.39032 2.74793 0 0 0 1276.72 pippo 1276.72
ODOM -1.63085 -1.38658 2.73788 0 0 0 1276.77 pippo 1276.77
ODOM -1.63451 -1.38652 2.72461 0 0 0 1276.83 pippo 1276.83
ODOM -1.64059 -1.38519 2.7135 0 0 0 1276.88 pippo 1276.88
FLASER 361 2.41 2.4 2.38 2.38 2.36 2.37 2.35 2.35 2.34 2.33 2.32 2.32 2.31 2.3 2.22 2.2 2.17 2.15 2.14 2.14 2.14 2.13 2.13 2.12 2.12 2.11 2.11 2.11 2.1 2.1 2.09 2.09 2.09 2.1 2.09 2.09 2.09 2.09 2.08 2.08 2.09 2.08 2.08 2.08 2.08 2.08 2.08 2.08 2.08 2.08 2.08 2.08 2.08 2.08 2.09 2.09 2.09 2.09 2.1 2.1 2.1 2.12 2.12 2.13 2.11 2.11 2.11 2.11 2.12 2.12 2.13 2.13 2.14 2.14 2.15 2.15 2.16 2.16 2.17 2.17 2.18 2.18 2.19 2.2 2.2 2.21 2.22 2.23 2.24 2.24 2.25 2.26 2.27 2.27 2.28 2.29 2.3 2.3 2.32 2.33 2.35 2.35 2.36 2.37 2.39 2.4 2.43 2.44 2.44 2.44 2.46 2.46 2.49 2.49 2.51 2.52 2.54 2.56 2.58 2.58 2.61 2.62 2.65 2.66 2.68 2.7 2.73 2.74 2.76 2.78 2.81 2.82 2.86 2.88 2.91 2.93 3 4.3 4.25 4.21 4.16 4.14 4.08 4.06 4.01 3.99 3.94 3.92 3.87 3.86 3.82 3.78 3.83 4 3.76 3.76 3.74 3.78 3.76 3.78 3.84 3.87 3.94 3.97 4.05 4.09 4.18 4.21 4.3 4.35 4.45 4.51 4.59 4.65 4.75 4.82 4.93 5 5.12 5.19 5.34 5.4 5.55 5.63 5.8 5.88 6.08 6.18 6.38 6.5 6.72 6.85 7.1 7.25 7.53 7.7 8.6 8.78 8.86 8.85 9.25 9.48 9.99 10.27 10.88 11.23 5.19 3.44 3.3 3.28 3.23 3.19 3.17 3.16 3.13 3.12 3.11 3.11 3.1 3.09 3.09 3.09 3.09 3.08 3.08 3.08 3.08 3.09 3.09 3.09 3.09 3.08 3.09 3.09 3.1 3.1 3.11 3.11 3.11 3.11 3.13 3.13 3.14 3.13 3.14 3.15 3.15 3.15 3.16 3.16 3.16 3.17 3.18 3.18 3.2 3.2 3.22 3.22 3.24 3.24 3.25 3.26 3.28 3.28 3.3 3.3 3.32 3.33 3.34 3.35 3.4 1.29 1.28 1.28 1.29 1.27 1.25 1.26 1.26 1.3 1.32 1.33 1.3 1.32 1.34 1.35 1.36 1.36 1.35 1.33 1.03 1.03 1.02 1 0.99 0.98 0.96 0.96 0.94 0.93 0.92 0.92 0.9 0.89 0.88 0.87 0.87 0.88 0.89 0.89 0.87 0.85 0.85 0.85 0.82 0.82 0.82 0.82 0.8 0.78 0.78 0.78 0.82 0.83 0.84 0.85 0.85 0.84 0.82 0.85 1.03 1.16 1.2 1.17 0.99 0.99 0.98 0.99 0.98 0.97 0.97 0.99 1.01 1 0.9 0.87 0.82 0.76 0.73 1.1 1.18 1.1 1.09 1.09 1.25 1.13 1.06 0.95 0.95 0.91 0.86 -1.59803 -1.38907 2.71194 -1.59803 -1.38907 2.71194 1276.88 pippo 1276.88
ODOM -1.59803 -1.38907 2.71194 0 0 0 0 pippo 0
NEFF 43.2122
ODOM -1.60656 -1.38818 2.68837 0 0 0 1277.01 pippo 1277.01
ODOM -1.61039 -1.3842 2.68174 0 0 0 1277.07 pippo 1277.07
ODOM -1.61721 -1.3831 2.67348 0 0 0 1277.12 pippo 1277.12
ODOM -1.6232 -1.37688 2.67274 0 0 0 1277.2 pippo 1277.2
ODOM -1.6315 -1.37673 2.67226 0 0 0 1277.25 pippo 1277.25
ODOM -1.63136 -1.3694 2.67226 0 0 0 1277.3 pippo 1277.3
ODOM -1.64433 -1.37087 2.67128 0 0 0 1277.36 pippo 1277.36
ODOM -1.65662 -1.36186 2.67116 0 0 0 1277.44 pippo 1277.44
ODOM -1.66314 -1.35783 2.67116 0 0 0 1277.49 pippo 1277.49
ODOM -1.6677 -1.35359 2.67116 0 0 0 1277.54 pippo 1277.54
ODOM -1.67668 -1.35074 2.66969 0 0 0 1277.6 pippo 1277.6
ODOM -1.68543 -1.34863 2.66969 0 0 0 1277.67 pippo 1277.67
ODOM -1.69266 -1.34312 2.67018 0 0 0 1277.73 pippo 1277.73
ODOM -1.70214 -1.34124 2.67018 0 0 0 1277.79 pippo 1277.79
ODOM -1.70622 -1.33725 2.67018 0 0 0 1277.84 pippo 1277.84
ODOM -1.71513 -1.3305 2.66823 0 0 0 1277.92 pippo 1277.92
ODOM -1.72167 -1.32769 2.66823 0 0 0 1277.97 pippo 1277.97
ODOM -1.73292 -1.3287 2.66823 0 0 0 1278.03 pippo 1278.03
