ODOM 0 0 0 0 0 0 1.01893e+09 pippo 1.01893e+09
ODOM 0 0 0 0 0 0 1.01893e+09 pippo 1.01893e+09
ODOM 0 0 0 0 0 0 1.01893e+09 pippo 1.01893e+09
ODOM 0 0 0 0 0 0 1.01893e+09 pippo 1.01893e+09
ODOM 0 0 0 0 0 0 1.01893e+09 pippo 1.01893e+09
ODOM 0 0 0 0 0 0 1.01893e+09 pippo 1.01893e+09
ODOM 0 0 0 0 0 0 1.01893e+09 pippo 1.01893e+09
ODOM 0 0 0 0 0 0 1.01893e+09 pippo 1.01893e+09
ODOM 0 0 0 0 0 0 1.01893e+09 pippo 1.01893e+09
ODOM 0 0 0 0 0 0 1.01893e+09 pippo 1.01893e+09
ODOM 0 0 0 0 0 0 1.01893e+09 pippo 1.01893e+09
ODOM 0 0 0 0 0 0 1.01893e+09 pippo 1.01893e+09
ODOM 0 0 0 0 0 0 1.01893e+09 pippo 1.01893e+09
ODOM 0 0 0 0 0 0 1.01893e+09 pippo 1.01893e+09
ODOM 0 0 0 0 0 0 1.01893e+09 pippo 1.01893e+09
ODOM 0 0 0 0 0 0 1.01893e+09 pippo 1.01893e+09
ODOM 0 0 0 0 0 0 1.01893e+09 pippo 1.01893e+09
ODOM 0 0 0 0 0 0 1.01893e+09 pippo 1.01893e+09
ODOM 0 0 0 0 0 0 1.01893e+09 pippo 1.01893e+09
ODOM 0 0 0 0 0 0 1.01893e+09 pippo 1.01893e+09
ODOM 0 0 0 0 0 0 1.01893e+09 pippo 1.01893e+09
ODOM 0 0 0 0 0 0 1.01893e+09 pippo 1.01893e+09
ODOM 0 0 0 0 0 0 1.01893e+09 pippo 1.01893e+09
ODOM 0 0 0 0 0 0 1.01893e+09 pippo 1.01893e+09
ODOM 0 0 0 0 0 0 1.01893e+09 pippo 1.01893e+09
ODOM 0 0 0 0 0 0 1.01893e+09 pippo 1.01893e+09
ODOM 0 0 0 0 0 0 1.01893e+09 pippo 1.01893e+09
ODOM 0 0 0 0 0 0 1.01893e+09 pippo 1.01893e+09
ODOM 0 0 0 0 0 0 1.01893e+09 pippo 1.01893e+09
ODOM 0 0 0 0 0 0 1.01893e+09 pippo 1.01893e+09
ODOM 0 0 0 0 0 0 1.01893e+09 pippo 1.01893e+09
ODOM 0 0 0 0 0 0 1.01893e+09 pippo 1.01893e+09
ODOM 0 0 0 0 0 0 1.01893e+09 pippo 1.01893e+09
ODOM 0 0 0 0 0 0 1.01893e+09 pippo 1.01893e+09
ODOM 0 0 0 0 0 0 1.01893e+09 pippo 1.01893e+09
ODOM 0 0 0 0 0 0 1.01893e+09 pippo 1.01893e+09
ODOM 0 0 0 0 0 0 1.01893e+09 pippo 1.01893e+09
ODOM 0 0 0 0 0 0 1.01893e+09 pippo 1.01893e+09
ODOM 0 0 0 0 0 0 1.01893e+09 pippo 1.01893e+09
ODOM 0 0 0 0 0 0 1.01893e+09 pippo 1.01893e+09
ODOM 0 0 0 0 0 0 1.01893e+09 pippo 1.01893e+09
ODOM 0 0 0 0 0 0 1.01893e+09 pippo 1.01893e+09
ODOM 0 0 0 0 0 0 1.01893e+09 pippo 1.01893e+09
ODOM 0 0 0 0 0 0 1.01893e+09 pippo 1.01893e+09
ODOM 0 0 0 0 0 0 1.01893e+09 pippo 1.01893e+09
ODOM 0 0 0 0 0 0 1.01893e+09 pippo 1.01893e+09
ODOM 0 0 0 0 0 0 1.01893e+09 pippo 1.01893e+09
ODOM 0 0 0 0 0 0 1.01893e+09 pippo 1.01893e+09
ODOM 0 0 0 0 0 0 1.01893e+09 pippo 1.01893e+09
ODOM 0 0 0 0 0 0 1.01893e+09 pippo 1.01893e+09
ODOM 0 0 0 0 0 0 1.01893e+09 pippo 1.01893e+09
ODOM 0 0 0 0 0 0 1.01893e+09 pippo 1.01893e+09
ODOM 0 0 0 0 0 0 1.01893e+09 pippo 1.01893e+09
ODOM 0 0 0 0 0 0 1.01893e+09 pippo 1.01893e+09
ODOM 0 0 0 0 0 0 1.01893e+09 pippo 1.01893e+09
ODOM 0 0 0 0 0 0 1.01893e+09 pippo 1.01893e+09
ODOM 0 0 0 0 0 0 1.01893e+09 pippo 1.01893e+09
ODOM 0 0 0 0 0 0 1.01893e+09 pippo 1.01893e+09
ODOM 0 0 0 0 0 0 1.01893e+09 pippo 1.01893e+09
ODOM 0 0 0 0 0 0 1.01893e+09 pippo 1.01893e+09
ODOM 0 0 0 0 0 0 1.01893e+09 pippo 1.01893e+09
ODOM 0 0 0 0 0 0 1.01893e+09 pippo 1.01893e+09
ODOM 0 0 0 0 0 0 1.01893e+09 pippo 1.01893e+09
ODOM 0 0 0 0 0 0 1.01893e+09 pippo 1.01893e+09
ODOM 0 0 0 0 0 0 1.01893e+09 pippo 1.01893e+09
ODOM 0 0 0 0 0 0 1.01893e+09 pippo 1.01893e+09
ODOM 0 0 0 0 0 0 1.01893e+09 pippo 1.01893e+09
ODOM 0 0 0 0 0 0 1.01893e+09 pippo 1.01893e+09
ODOM 0 0 0 0 0 0 1.01893e+09 pippo 1.01893e+09
ODOM 0 0 0 0 0 0 1.01893e+09 pippo 1.01893e+09
ODOM 0 0 0 0 0 0 1.01893e+09 pippo 1.01893e+09
ODOM 0 0 0 0 0 0 1.01893e+09 pippo 1.01893e+09
ODOM 0 0 0 0 0 0 1.01893e+09 pippo 1.01893e+09
ODOM 0 0 0 0 0 0 1.01893e+09 pippo 1.01893e+09
ODOM 0 0 0 0 0 0 1.01893e+09 pippo 1.01893e+09
ODOM 0 0 0 0 0 0 1.01893e+09 pippo 1.01893e+09
ODOM 0 0 0 0 0 0 1.01893e+09 pippo 1.01893e+09
ODOM 0 0 0 0 0 0 1.01893e+09 pippo 1.01893e+09
ODOM 0 0 0 0 0 0 1.01893e+09 pippo 1.01893e+09
ODOM 0 0 0 0 0 0 1.01893e+09 pippo 1.01893e+09
ODOM 0 0 0 0 0 0 1.01893e+09 pippo 1.01893e+09
ODOM 0 0 0 0 0 0 1.01893e+09 pippo 1.01893e+09
ODOM 0 0 0 0 0 0 1.01893e+09 pippo 1.01893e+09
ODOM 0 0 0 0 0 0 1.01893e+09 pippo 1.01893e+09
ODOM 0 0 0 0 0 0 1.01893e+09 pippo 1.01893e+09
ODOM 0 0 0 0 0 0 1.01893e+09 pippo 1.01893e+09
ODOM 0 0 0 0 0 0 1.01893e+09 pippo 1.01893e+09
ODOM 0 0 0 0 0 0 1.01893e+09 pippo 1.01893e+09
ODOM 0 0 0 0 0 0 1.01893e+09 pippo 1.01893e+09
ODOM 0 0 0 0 0 0 1.01893e+09 pippo 1.01893e+09
ODOM 0 0 0 0 0 0 1.01893e+09 pippo 1.01893e+09
ODOM 0 0 0 0 0 0 1.01893e+09 pippo 1.01893e+09
ODOM 0 0 0 0 0 0 1.01893e+09 pippo 1.01893e+09
ODOM 0 0 0 0 0 0 1.01893e+09 pippo 1.01893e+09
ODOM 0 0 0 0 0 0 1.01893e+09 pippo 1.01893e+09
ODOM 0 0 0 0 0 0 1.01893e+09 pippo 1.01893e+09
ODOM 0.004998 -0.000141326 -0.030727 0 0 0 1.01893e+09 pippo 1.01893e+09
ODOM 0.0259331 -0.0027341 -0.165929 0 0 0 1.01893e+09 pippo 1.01893e+09
ODOM 0.0576942 -0.0116354 -0.399459 0 0 0 1.01893e+09 pippo 1.01893e+09
ODOM 0.095142 -0.0317019 -0.608407 0 0 0 1.01893e+09 pippo 1.01893e+09
FLASER 361 4.66 4.65 4.74 4.66 5.99 5.92 6.94 6.83 7.42 7.31 7.9 7.77 8.61 8.04 8.66 8.66 8.96 8.76 9.79 9.59 10.72 10.45 11.97 11.65 13.43 13.03 13.12 14.81 13.1 81.91 4.04 16.53 3.95 3.96 3.85 3.88 3.84 3.84 3.83 3.83 3.82 3.82 3.83 3.83 3.82 3.82 3.81 3.81 3.81 3.81 3.81 3.81 3.88 3.83 3.98 3.98 3.99 3.99 3.55 3.61 3.55 3.54 3.54 3.54 3.54 3.54 3.84 3.64 4.07 4.07 4.1 4.09 4.11 4.1 4.13 4.12 4.16 4.15 4.18 4.18 4.21 4.2 4.32 4.29 4.35 4.35 4.38 4.37 4.42 4.41 4.45 4.44 4.5 4.49 4.53 4.52 4.58 4.57 4.63 4.61 4.67 4.65 4.72 4.7 4.77 4.76 4.83 4.81 4.81 4.83 4.84 4.83 4.9 4.89 4.97 4.95 4.73 4.81 4.98 4.78 4.9 4.92 4.8 4.82 4.71 4.73 4.23 4.32 4.12 4.14 4.11 4.1 4.2 4.17 4.32 4.34 4.25 4.26 4.18 4.19 4.12 4.14 4.07 4.08 4.01 4.02 3.92 3.96 3.89 3.9 3.86 3.86 3.82 3.82 3.78 3.79 3.71 3.72 3.67 3.68 3.64 3.64 3.61 3.61 3.57 3.59 3.53 3.55 3.52 3.52 3.49 3.49 3.46 3.47 3.44 3.44 3.41 3.42 3.37 3.39 3.36 3.36 3.34 3.35 3.34 3.34 3.31 3.31 3.3 3.3 3.28 3.28 3.27 3.27 3.28 3.27 11.08 11.08 11.06 11.04 11.45 11.33 11.87 11.78 11.86 11.87 11.84 11.84 11.82 11.82 11.8 11.79 11.76 11.77 11.75 11.73 11.75 11.75 11.74 11.74 11.75 11.74 11.74 11.74 11.61 11.72 10.72 10.91 3.21 3.25 3.2 3.19 3.08 3.08 3.06 3.07 3.04 3.05 3.03 3.03 3.01 3.02 3 3.01 2.99 2.99 2.98 2.99 2.98 2.98 2.97 2.97 2.97 2.97 2.97 2.97 2.96 2.96 2.95 2.95 2.95 2.94 2.95 2.95 2.94 2.95 2.94 2.95 3.35 3.07 3.23 3.36 3.18 3.17 3.19 3.18 3.21 3.2 3.24 3.23 3.25 3.24 3.27 3.26 3.3 3.29 3.34 3.32 3.35 3.35 3.4 3.38 3.43 3.42 3.47 3.46 3.51 3.49 3.54 3.52 3.58 3.56 3.62 3.61 3.65 3.65 3.71 3.69 3.83 3.83 3.86 3.85 3.99 3.96 4.13 4.08 4.27 4.24 4.33 4.34 4.26 4.28 4.23 4.24 4.2 4.22 4.16 4.17 4.12 4.14 4.08 4.09 4.06 4.06 4.91 4.93 4.83 4.86 4.76 4.78 4.68 4.71 3.07 81.91 3.04 3.04 3.02 3.02 2.6 2.74 2.56 2.57 2.52 2.53 2.48 2.49 2.45 2.45 2.51 2.49 2.56 0.0667143 -0.0410729 -0.506844 0.0667143 -0.0410729 -0.506844 1.01893e+09 pippo 1.01893e+09
ODOM 0.0667143 -0.0410729 -0.506844 0 0 0 0 pippo 0
NEFF 30
ODOM 0.113525 -0.0777435 -0.81412 0 0 0 1.01893e+09 pippo 1.01893e+09
ODOM 0.13124 -0.100507 -0.973904 0 0 0 1.01893e+09 pippo 1.01893e+09
ODOM 0.142531 -0.117727 -1.09681 0 0 0 1.01893e+09 pippo 1.01893e+09
FLASER 361 6.61 6.6 6.45 6.44 6.29 6.29 6.16 6.16 6.04 6.03 5.92 5.91 5.8 5.8 5.69 5.69 5.59 5.58 5.48 5.47 5.36 5.36 5.31 5.31 5.23 5.23 5.15 5.15 5.07 5.07 4.98 4.98 4.92 4.91 4.85 4.84 4.79 4.79 4.72 4.71 4.67 4.67 4.61 4.61 4.51 4.48 4.34 4.35 4.31 4.31 4.27 4.27 4.25 4.24 4.21 4.21 4.17 4.17 4.15 4.15 4.18 4.19 4.18 4.19 4.24 4.24 4.61 4.61 4.6 4.6 5.73 5.74 6.03 6.06 6.88 6.87 7.66 7.68 7.86 7.86 8.29 8.51 8.58 8.58 8.87 8.87 9.64 9.64 10.51 10.54 11.63 11.68 13.05 13.1 13 13.02 12.07 12.17 3.89 3.88 3.85 3.85 3.74 3.74 3.74 3.73 3.72 3.72 3.73 3.72 3.71 3.71 3.7 3.7 3.71 3.7 3.7 3.7 3.69 3.7 3.86 3.86 3.88 3.88 3.89 3.89 3.46 3.46 3.46 3.46 3.45 3.45 3.45 3.44 3.95 3.95 3.98 3.98 3.99 3.99 4 4 4.03 4.03 4.05 4.05 4.08 4.08 4.1 4.1 4.18 4.19 4.24 4.24 4.27 4.27 4.31 4.3 4.35 4.35 4.38 4.38 4.42 4.41 4.45 4.45 4.5 4.5 4.54 4.54 4.58 4.58 4.64 4.64 4.67 4.67 4.72 4.72 4.7 4.69 4.76 4.76 4.83 4.83 4.88 4.88 4.6 4.6 4.85 4.85 4.76 4.75 4.66 4.66 4.58 4.58 4.1 4.1 4 4 4 4 4.11 4.1 4.2 4.2 4.13 4.14 4.08 4.07 4.01 4.01 3.96 3.96 3.91 3.91 3.82 3.82 3.73 3.73 3.74 3.74 3.7 3.7 3.65 3.65 3.62 3.62 3.58 3.57 3.54 3.54 3.51 3.51 3.49 3.49 3.46 3.45 3.42 3.43 3.4 3.4 3.38 3.38 3.35 3.35 3.34 3.33 3.3 3.3 3.27 3.28 3.27 3.27 3.26 3.26 3.25 3.24 3.22 3.22 3.2 3.2 3.19 3.19 3.18 3.18 3.2 3.2 10.97 10.97 11.39 11.4 11.79 11.79 11.79 11.79 11.78 11.77 11.74 11.74 11.71 11.71 11.69 11.68 11.69 11.69 11.67 11.67 11.67 11.66 11.67 11.67 11.68 11.68 11.61 11.6 10.79 10.79 10.46 10.47 3.2 3.2 3.15 3.15 3.03 3.04 3.01 3.01 3 3 2.98 2.98 2.97 2.97 2.97 2.97 2.96 2.96 2.95 2.95 2.94 2.94 2.94 2.94 2.93 2.94 2.93 2.92 2.93 2.92 2.92 2.92 2.92 2.92 2.92 2.92 2.92 2.92 2.92 2.92 2.94 2.95 3.25 3.25 3.14 3.14 3.17 3.16 3.18 3.18 3.2 3.2 3.23 3.23 3.26 3.26 3.28 3.28 3.31 3.31 3.35 0.12711 -0.142727 -1.11556 0.12711 -0.142727 -1.11556 1.01893e+09 pippo 1.01893e+09
ODOM 0.12711 -0.142727 -1.11556 0 0 0 0 pippo 0
NEFF 29.1
ODOM 0.131759 -0.154491 -1.18317 0 0 0 1.01893e+09 pippo 1.01893e+09
ODOM 0.13519 -0.162315 -1.23233 0 0 0 1.01893e+09 pippo 1.01893e+09
ODOM 0.136461 -0.167254 -1.26306 0 0 0 1.01893e+09 pippo 1.01893e+09
ODOM 0.138895 -0.175133 -1.31837 0 0 0 1.01893e+09 pippo 1.01893e+09
ODOM 0.144524 -0.20487 -1.4167 0 0 0 1.01893e+09 pippo 1.01893e+09
ODOM 0.152624 -0.261513 -1.42899 0 0 0 1.01893e+09 pippo 1.01893e+09
ODOM 0.168569 -0.351778 -1.37368 0 0 0 1.01893e+09 pippo 1.01893e+09
ODOM 0.180445 -0.404208 -1.33066 0 0 0 1.01893e+09 pippo 1.01893e+09
ODOM 0.190395 -0.439718 -1.21389 0 0 0 1.01893e+09 pippo 1.01893e+09
FLASER 361 11.39 10.76 10.66 10.21 10.13 9.76 9.69 9.46 9.39 9.06 8.99 8.69 8.64 8.37 8.32 8.06 8.02 7.78 7.73 7.51 7.49 7.29 7.26 7.08 7.04 6.86 6.84 6.67 6.64 6.5 6.47 6.31 6.29 6.16 6.13 6.01 6 5.88 5.86 5.74 5.73 5.62 5.61 5.51 5.5 5.4 5.39 5.29 5.28 5.14 5.14 5.1 5.09 5.01 4.99 4.92 4.91 4.85 4.84 4.77 4.76 4.69 4.68 4.63 4.62 4.56 4.55 4.5 4.49 4.44 4.43 4.38 4.37 4.15 4.15 4.12 4.12 4.08 4.08 4.05 4.05 4.01 4.01 3.98 3.98 3.95 3.94 3.92 3.92 4 4 3.96 3.96 4.03 4.08 4.37 4.37 4.34 4.35 5.33 5.38 5.61 5.64 5.96 6.48 6.65 6.71 7.03 7.09 7.46 7.57 8.29 8.3 8.31 8.32 8.37 8.43 9.06 9.18 9.78 9.9 10.69 10.83 11.82 12 13.17 13.4 3.7 3.67 3.58 3.57 3.51 3.49 3.46 3.47 3.45 3.46 3.45 3.44 3.44 3.43 3.43 3.43 3.42 3.42 3.41 3.42 3.41 3.41 3.41 3.42 3.46 3.49 3.57 3.57 3.58 3.58 3.28 3.24 3.16 3.17 3.16 3.16 3.16 3.16 3.16 3.16 3.63 3.64 3.66 3.67 3.68 3.68 3.69 3.7 3.72 3.72 3.73 3.74 3.77 3.78 3.79 3.8 3.81 3.83 3.93 3.94 3.96 3.97 3.99 3.99 4.02 4.03 4.06 4.07 4.09 4.1 4.13 4.14 4.17 4.17 4.21 4.22 4.24 4.25 4.29 4.3 4.34 4.35 4.38 4.39 4.43 4.45 4.43 4.42 4.46 4.47 4.52 4.53 4.58 4.6 4.5 4.41 4.36 4.37 4.57 4.55 4.48 4.47 4.39 4.38 4.32 4.31 3.9 3.86 3.77 3.74 3.72 3.73 3.81 3.82 3.99 3.98 3.93 3.92 3.87 3.86 3.82 3.82 3.78 3.77 3.71 3.7 3.66 3.65 3.57 3.54 3.48 3.49 3.53 3.53 3.51 3.5 3.47 3.47 3.44 3.43 3.4 3.39 3.37 3.37 3.35 3.35 3.33 3.33 3.3 3.3 3.28 3.28 3.25 3.25 3.23 3.23 3.21 3.21 3.2 3.19 3.17 3.17 3.16 3.16 3.11 3.12 3.13 3.13 3.12 3.11 3.11 3.11 3.09 3.09 3.09 3.09 3.08 3.08 3.06 3.07 3.07 3.07 3.09 11.68 11.67 11.66 11.63 11.64 11.62 11.62 11.6 11.61 11.57 11.59 11.59 11.59 11.6 11.6 11.6 11.61 11.6 11.61 11.6 11.6 11.11 10.98 10.33 10.31 10.33 10.31 10.76 10.76 10.79 10.79 10.82 10.82 3.17 3.16 3.11 3.11 3.09 3.07 3 2.99 2.99 2.98 2.97 2.98 2.98 2.97 2.97 2.97 2.97 2.98 0.15697 -0.42721 -1.40141 0.15697 -0.42721 -1.40141 1.01893e+09 pippo 1.01893e+09
ODOM 0.15697 -0.42721 -1.40141 0 0 0 0 pippo 0
NEFF 27.3949
ODOM 0.161522 -0.445979 -1.23548 0 0 0 1.01893e+09 pippo 1.01893e+09
ODOM 0.167135 -0.456819 -1.07569 0 0 0 1.01893e+09 pippo 1.01893e+09
ODOM 0.168719 -0.460058 -0.903619 0 0 0 1.01893e+09 pippo 1.01893e+09
ODOM 0.168719 -0.460058 -0.879037 0 0 0 1.01893e+09 pippo 1.01893e+09
FLASER 361 4.44 4.4 4.39 4.17 4.15 4.12 4.1 4.09 4.07 4.05 4.04 4 3.99 3.98 3.97 3.94 3.93 3.91 3.91 4 3.99 3.96 3.96 4 4.09 4.36 4.37 4.35 4.35 4.62 5.35 5.52 5.58 5.75 5.93 6.5 6.59 6.84 6.96 7.25 7.36 7.86 8.26 8.29 8.29 8.31 8.31 8.63 8.85 9.33 9.54 10.12 10.37 11.09 11.43 12.26 12.59 13.63 3.66 3.56 3.55 3.49 3.45 3.44 3.44 3.43 3.42 3.42 3.42 3.41 3.4 3.39 3.4 3.39 3.4 3.39 3.39 3.38 3.38 3.37 3.38 3.41 3.46 3.55 3.55 3.55 3.55 3.33 3.19 3.13 3.13 3.12 3.12 3.12 3.12 3.11 3.11 3.35 3.61 3.63 3.63 3.64 3.65 3.66 3.66 3.67 3.67 3.69 3.69 3.7 3.71 3.73 3.73 3.77 3.77 3.86 3.88 3.9 3.91 3.94 3.94 3.97 3.98 4 4 4.03 4.05 4.07 4.08 4.1 4.11 4.15 4.16 4.17 4.19 4.22 4.24 4.26 4.28 4.31 4.33 4.37 4.37 4.4 4.39 4.38 4.39 4.44 4.44 4.49 4.51 4.56 4.58 4.3 4.27 4.54 4.53 4.47 4.45 4.39 4.37 4.31 4.3 4.25 4.21 3.74 3.72 3.68 3.67 3.68 3.7 3.78 3.83 3.91 3.89 3.86 3.85 3.8 3.79 3.74 3.72 3.68 3.67 3.65 3.64 3.6 3.56 3.38 3.39 3.43 3.46 3.48 3.47 3.44 3.43 3.4 3.4 3.37 3.36 3.34 3.33 3.31 3.3 3.28 3.28 3.27 3.26 3.24 3.23 3.21 3.21 3.19 3.19 3.17 3.17 3.16 3.15 3.14 3.13 3.12 3.11 3.1 3.1 3.09 3.06 3.08 3.07 3.06 3.06 3.05 3.05 3.04 3.04 3.02 3.02 3.02 3.01 3.02 3.01 3.01 3.01 3.01 3.04 11.62 11.61 11.6 11.59 11.57 11.56 11.56 11.55 11.53 11.54 11.54 11.55 11.55 11.55 11.56 11.56 11.56 11.57 11.56 11.54 11.09 10.88 10.34 10.3 10.35 10.31 10.72 10.73 10.75 10.75 10.77 10.78 10.8 3.15 3.1 3.09 3.08 3.08 2.99 2.97 2.96 2.96 2.95 2.95 2.94 2.94 2.95 2.94 2.94 2.93 2.93 2.93 2.93 2.93 2.93 2.92 2.93 2.93 2.93 2.92 2.93 2.92 2.93 2.93 2.93 2.93 2.94 2.94 2.94 2.94 2.94 2.95 2.96 2.96 2.98 3.01 3.33 3.23 3.19 3.2 3.22 3.23 3.26 3.26 3.28 3.29 3.32 3.33 3.35 3.36 3.39 3.4 3.43 3.45 3.48 3.49 3.52 3.53 3.55 3.57 3.62 3.63 3.65 3.67 3.71 3.72 3.78 3.8 3.83 3.85 3.94 4 4.03 4.03 4.17 4.22 4.36 4.4 0.199471 -0.464056 -0.807162 0.199471 -0.464056 -0.807162 1.01893e+09 pippo 1.01893e+09
ODOM 0.199471 -0.464056 -0.807162 0 0 0 0 pippo 0
NEFF 26.015
ODOM 0.219516 -0.480311 -0.54905 0 0 0 1.01893e+09 pippo 1.01893e+09
ODOM 0.259524 -0.497786 -0.327811 0 0 0 1.01893e+09 pippo 1.01893e+09
ODOM 0.31874 -0.512429 -0.143445 0 0 0 1.01893e+09 pippo 1.01893e+09
FLASER 361 3.44 3.42 3.43 3.41 3.42 3.4 3.41 3.4 3.4 3.39 3.4 3.4 3.4 3.39 3.39 3.51 3.42 3.55 3.55 3.55 3.55 3.12 3.17 3.12 3.12 3.11 3.11 3.11 3.11 3.12 3.11 3.6 3.59 3.62 3.61 3.63 3.62 3.65 3.64 3.67 3.66 3.68 3.68 3.69 3.68 3.71 3.71 3.73 3.73 3.85 3.85 3.88 3.89 3.91 3.9 3.94 3.94 3.98 3.97 4.01 4.01 4.04 4.04 4.08 4.07 4.11 4.12 4.15 4.14 4.19 4.19 4.24 4.23 4.28 4.27 4.33 4.32 4.38 4.37 4.34 4.32 4.4 4.39 4.45 4.44 4.51 4.5 4.24 4.29 4.51 4.35 4.43 4.44 4.35 4.37 4.27 4.28 4.19 4.2 3.67 3.7 3.61 3.63 3.64 3.62 3.72 3.69 3.86 3.88 3.8 3.82 3.72 3.74 3.68 3.68 3.62 3.64 3.57 3.58 3.53 3.55 3.41 3.44 3.4 3.39 3.41 3.42 3.38 3.39 3.33 3.35 3.3 3.31 3.27 3.28 3.24 3.25 3.22 3.22 3.2 3.21 3.17 3.19 3.14 3.15 3.12 3.13 3.1 3.11 3.09 3.09 3.06 3.07 3.04 3.05 3.02 3.03 3.01 3.02 3 3 2.99 3 2.97 2.98 2.96 2.97 2.96 2.97 2.95 2.96 2.94 2.95 2.93 2.94 2.93 2.93 2.94 2.96 11.53 11.54 11.49 11.51 11.48 11.49 11.47 11.48 11.46 11.45 11.45 11.45 11.45 11.46 11.46 11.46 11.49 11.48 11.46 11.47 10.81 10.97 10.24 10.28 10.24 10.28 10.64 10.64 10.67 10.67 10.7 10.7 10.72 10.73 3.02 3.05 3 3 2.91 2.94 2.88 2.88 2.87 2.86 2.86 2.86 2.85 2.85 2.84 2.84 2.84 2.85 2.85 2.85 2.84 2.85 2.85 2.85 2.85 2.85 2.85 2.85 2.84 2.85 2.84 2.84 2.86 2.85 2.85 2.86 2.86 2.87 2.87 2.87 2.88 2.89 2.96 2.93 3.14 3.16 3.13 3.13 3.16 3.16 3.2 3.19 3.23 3.22 3.27 3.26 3.3 3.29 3.34 3.34 3.38 3.38 3.43 3.42 3.48 3.46 3.52 3.51 3.56 3.55 3.62 3.61 3.67 3.66 3.73 3.72 3.81 3.8 3.94 3.92 3.98 3.98 4.18 4.16 4.37 4.35 4.46 4.47 4.41 4.42 4.4 4.4 4.37 4.38 4.34 4.35 4.3 4.31 4.27 4.28 4.25 4.25 5.07 5.07 4.97 4.98 4.9 4.92 6.68 4.89 6.74 6.72 7.14 7.1 3.28 3.29 3.28 3.28 3.26 3.26 3.05 3.2 2.84 2.84 2.8 2.81 2.78 2.78 2.76 2.76 2.79 2.79 2.89 2.88 3.15 3.1 3.14 3.14 3.13 3.14 3.13 3.13 2.84 2.84 2.84 2.84 2.83 2.83 0.274539 -0.47983 -0.243443 0.274539 -0.47983 -0.243443 1.01893e+09 pippo 1.01893e+09
ODOM 0.274539 -0.47983 -0.243443 0 0 0 0 pippo 0
NEFF 25.994
ODOM 0.326852 -0.488331 -0.0590767 0 0 0 1.01893e+09 pippo 1.01893e+09
ODOM 0.367618 -0.48685 0.119143 0 0 0 1.01893e+09 pippo 1.01893e+09
ODOM 0.40441 -0.478645 0.291218 0 0 0 1.01893e+09 pippo 1.01893e+09
FLASER 361 4.16 4.21 4.2 4.25 4.24 4.29 4.28 4.34 4.33 4.29 4.29 4.34 4.33 4.4 4.4 4.46 4.44 4.26 4.49 4.42 4.23 4.42 4.43 4.32 4.34 4.23 4.26 4.15 4.17 3.61 3.64 3.55 3.56 3.56 3.55 3.64 3.62 3.8 3.81 3.72 3.73 3.67 3.68 3.6 3.62 3.55 3.56 3.5 3.51 3.44 3.46 3.41 3.41 3.37 3.37 3.32 3.34 3.29 3.3 3.25 3.26 3.23 3.23 3.18 3.19 3.14 3.15 3.12 3.13 3.1 3.11 3.08 3.09 3.05 3.05 3.01 3.02 3 3.01 2.98 2.99 2.96 2.97 2.95 2.95 2.93 2.93 2.91 2.92 2.89 2.9 2.88 2.88 2.86 2.87 2.85 2.85 2.84 2.84 2.83 2.83 2.82 2.82 2.81 2.82 2.82 2.81 2.82 2.82 11.41 11.42 11.41 11.43 11.39 11.39 11.36 11.36 11.34 11.35 11.3 11.33 11.33 11.32 11.32 11.32 11.32 11.32 11.32 11.33 11.33 11.35 11.26 11.31 10.52 10.68 10.13 10.08 10.09 10.08 10.51 10.51 10.54 10.53 10.56 10.56 2.91 2.92 2.84 2.85 2.85 2.86 2.74 2.76 2.73 2.74 2.72 2.73 2.72 2.72 2.71 2.71 2.71 2.71 2.71 2.71 2.71 2.71 2.7 2.71 2.7 2.71 2.71 2.71 2.71 2.71 2.71 2.7 2.71 2.71 2.71 2.71 2.71 2.71 2.72 2.72 2.73 2.73 2.74 2.74 2.75 2.75 2.94 2.85 2.99 3 3 3.01 3.02 3.02 3.05 3.05 3.09 3.09 3.12 3.12 3.16 3.15 3.2 3.2 3.24 3.24 3.28 3.28 3.33 3.32 3.38 3.38 3.43 3.42 3.48 3.47 3.53 3.53 3.58 3.57 3.64 3.63 3.77 3.72 3.84 3.84 4.01 3.98 4.21 4.18 4.35 4.34 4.3 4.31 4.27 4.28 4.25 4.26 4.22 4.23 4.19 4.2 4.17 4.18 4.15 4.15 4.95 4.26 4.89 4.9 4.82 4.84 4.74 4.75 6.62 6.62 7.04 7 7.37 7.3 3.21 3.21 3.18 3.18 3.17 3.17 3.14 3.15 2.78 2.8 2.75 2.76 2.72 2.73 2.69 2.7 2.67 2.67 2.75 2.74 2.84 2.84 3.07 3.08 3.06 3.07 3.07 3.06 2.85 2.89 2.77 2.77 2.76 2.77 2.76 2.76 2.87 2.83 3.05 3.05 3.05 3.05 3.05 3.06 3.06 3.06 3.06 3.06 3.07 3.07 3.08 3.08 3.08 3.08 3.09 3.09 3.1 3.1 3.11 3.11 3.12 3.12 3.14 3.13 3.14 3.14 3.18 3.18 3.21 3.2 3.21 3.21 3.24 3.24 3.26 3.26 3.28 3.28 3.3 3.3 3.33 3.32 3.36 3.37 3.02 3.1 2.96 2.96 2.98 2.98 3.44 3.13 3.48 3.47 2.97 3.03 0.430793 -0.439415 0.327587 0.430793 -0.439415 0.327587 1.01893e+09 pippo 1.01893e+09
ODOM 0.430793 -0.439415 0.327587 0 0 0 0 pippo 0
NEFF 25.3994
ODOM 0.454115 -0.430245 0.468934 0 0 0 1.01893e+09 pippo 1.01893e+09
ODOM 0.467141 -0.422808 0.561117 0 0 0 1.01893e+09 pippo 1.01893e+09
ODOM 0.492823 -0.402848 0.745482 0 0 0 1.01893e+09 pippo 1.01893e+09
ODOM 0.526325 -0.36875 0.862247 0 0 0 1.01893e+09 pippo 1.01893e+09
FLASER 361 3.16 3.13 3.13 3.09 3.1 3.07 3.08 3.04 3.04 3.03 3.03 3 3 2.98 2.98 2.96 2.95 2.92 2.93 2.91 2.91 2.89 2.89 2.87 2.87 2.86 2.86 2.85 2.84 2.83 2.83 2.82 2.82 2.8 2.8 2.8 2.8 2.79 2.78 2.78 2.78 2.77 2.77 2.78 2.78 11.21 11.2 11.37 11.37 11.36 11.36 11.32 11.33 11.3 11.3 11.29 11.29 11.24 11.24 11.27 11.27 11.26 11.26 11.27 11.27 11.27 11.28 11.28 11.27 11.11 11.12 10.41 10.42 10.41 10.41 10.4 10.33 10.45 10.45 10.47 10.47 2.84 2.85 2.79 2.79 2.77 2.78 2.67 2.68 2.66 2.66 2.65 2.65 2.64 2.65 2.63 2.64 2.63 2.63 2.63 2.63 2.62 2.62 2.62 2.62 2.63 2.63 2.62 2.63 2.63 2.63 2.62 2.62 2.62 2.62 2.62 2.63 2.63 2.63 2.63 2.63 2.64 2.64 2.65 2.65 2.66 2.66 2.74 2.73 2.91 2.92 2.9 2.91 2.93 2.93 2.96 2.96 2.99 2.99 3.02 3.02 3.05 3.05 3.09 3.09 3.12 3.12 3.16 3.15 3.2 3.2 3.24 3.24 3.29 3.3 3.34 3.34 3.39 3.39 3.44 3.44 3.49 3.49 3.55 3.56 3.67 3.67 3.73 3.73 3.91 3.91 4.09 4.09 4.25 4.25 4.2 4.21 4.17 4.18 4.17 4.16 4.13 4.14 4.11 4.12 4.08 4.08 4.05 4.06 4.07 4.07 4.81 4.82 4.76 4.76 4.67 4.68 6.5 6.51 6.84 6.84 7.14 7.15 3.12 3.13 3.09 3.1 3.08 3.08 3.07 3.07 3.05 3.06 2.68 2.68 2.65 2.65 2.62 2.62 2.59 2.59 2.57 2.57 2.64 2.65 2.75 2.75 2.98 2.98 2.98 2.98 2.98 2.98 2.81 2.8 2.68 2.68 2.68 2.68 2.68 2.68 2.7 2.71 2.98 2.97 2.97 2.97 2.98 2.98 2.98 2.98 2.98 2.99 2.99 2.99 3 3 3.01 3.01 3.02 3.03 3.03 3.03 3.04 3.04 3.04 3.05 3.05 3.05 3.07 3.07 3.09 3.09 3.13 3.14 3.15 3.15 3.16 3.16 3.19 3.19 3.21 3.21 3.23 3.23 3.26 3.26 3.29 3.29 3.3 3.3 2.94 2.94 2.91 2.91 2.92 2.93 3.38 3.41 3.44 3.45 2.93 2.93 2.91 2.91 2.93 2.93 3.57 3.58 3.62 3.62 3.54 3.54 3.47 3.48 3.5 3.5 3.47 3.47 3.5 3.5 2.43 2.39 2.27 3.29 3.33 3.33 3.15 3.13 3.08 3.09 3.05 3.06 3.11 3.11 2.93 2.93 2.84 2.79 2.41 2.28 2.9 2.91 4.8 4.8 2.7 2.7 2.67 2.67 2.64 2.64 2.71 2.72 5.37 5.37 2.52 2.51 2.51 2.51 2.48 2.48 0.503489 -0.324103 0.867105 0.503489 -0.324103 0.867105 1.01893e+09 pippo 1.01893e+09
ODOM 0.503489 -0.324103 0.867105 0 0 0 0 pippo 0
NEFF 24.7884
ODOM 0.535676 -0.282655 0.959288 0 0 0 1.01893e+09 pippo 1.01893e+09
ODOM 0.555747 -0.249819 1.04533 0 0 0 1.01893e+09 pippo 1.01893e+09
ODOM 0.568425 -0.22818 1.10678 0 0 0 1.01893e+09 pippo 1.01893e+09
ODOM 0.592478 -0.170643 1.22969 0 0 0 1.01893e+09 pippo 1.01893e+09
ODOM 0.615585 -0.0958699 1.29729 0 0 0 1.01893e+09 pippo 1.01893e+09
ODOM 0.627318 -0.0569939 1.30344 0 0 0 1.01893e+09 pippo 1.01893e+09
ODOM 0.659263 0.0660692 1.33417 0 0 0 1.01893e+09 pippo 1.01893e+09
ODOM 0.671079 0.114 1.32802 0 0 0 1.01893e+09 pippo 1.01893e+09
ODOM 0.712605 0.258068 1.24813 0 0 0 1.01893e+09 pippo 1.01893e+09
FLASER 361 2.71 2.67 2.67 2.59 2.54 2.54 2.53 2.52 2.52 2.51 2.5 2.49 2.49 2.48 2.47 2.45 2.45 2.44 2.44 2.42 2.41 2.41 2.4 2.39 2.39 2.39 2.38 2.39 2.39 2.38 2.38 2.38 2.37 2.37 2.37 2.36 2.36 2.35 2.35 2.34 2.34 2.34 2.33 2.33 2.34 2.34 2.34 2.38 2.68 2.83 2.83 2.63 2.56 2.56 2.57 2.57 2.59 2.59 2.6 2.6 2.62 2.62 2.64 2.64 2.66 2.66 2.68 2.68 2.7 2.71 2.73 2.73 2.75 2.76 2.78 2.79 2.8 2.81 2.83 2.83 2.85 2.86 2.89 2.9 2.92 2.93 2.96 2.96 2.99 3 3.02 3.04 3.07 3.08 3.11 3.12 3.23 3.22 3.26 3.26 3.33 3.37 3.46 3.52 3.6 3.65 3.72 3.74 3.71 3.69 3.66 3.66 3.66 3.65 3.63 3.61 3.59 3.57 3.56 3.55 3.54 3.53 3.52 3.5 3.52 3.67 4.34 4.31 4.27 4.25 4.22 4.18 4.13 4.1 5.96 5.94 5.96 5.97 6.26 2.58 2.55 2.54 2.54 2.53 2.53 2.52 2.52 2.51 2.45 2.21 2.1 2.09 2.08 2.06 2.05 2.04 2.03 2.02 2.01 1.99 1.99 1.99 2.04 2.06 2.11 2.14 2.24 2.34 2.41 2.41 2.41 2.4 2.41 2.4 2.4 2.39 2.18 2.14 2.1 2.09 2.1 2.09 2.1 2.09 2.1 2.09 2.15 2.18 2.4 2.4 2.41 2.4 2.41 2.41 2.41 2.41 2.41 2.41 2.42 2.42 2.43 2.42 2.44 2.43 2.45 2.44 2.45 2.45 2.47 2.47 2.48 2.47 2.5 2.48 2.51 2.51 2.52 2.52 2.53 2.53 2.54 2.53 2.55 2.56 2.6 2.6 2.62 2.62 2.64 2.64 2.67 2.66 2.68 2.68 2.7 2.71 2.73 2.73 2.76 2.76 2.79 2.79 2.82 2.81 2.82 2.82 2.53 2.47 2.41 2.4 2.41 2.42 2.44 2.47 3 3 3.04 3.04 2.53 2.48 2.47 2.45 2.47 2.45 2.6 2.65 3.16 3.14 3.12 3.09 3.08 3.08 3.07 3.04 3.05 3.05 3.11 3.01 2.93 2.9 2.87 2.85 2.85 2.85 2.91 2.91 2.87 2.83 2.14 2 1.92 2.02 2.7 2.7 2.76 2.76 2.77 2.66 2.57 2.56 2.55 2.54 2.46 2.4 2.26 2.26 2.29 2.3 5.17 2.42 2.42 2.41 2.4 2.4 2.39 2.37 2.41 2.42 2.46 2.48 6.6 6.71 2.3 2.27 2.3 2.3 2.28 2.28 2.27 2.27 2.32 2.32 9.15 9.28 9.26 9.23 9.2 9.2 2.21 2.21 2.2 2.21 2.19 2.2 2.19 2.21 11.73 11.72 11.7 11.69 1.46 1.46 11.75 11.74 2.11 1.97 2.14 2.14 2.14 2.14 2.25 0.612611 0.212524 1.35414 0.612611 0.212524 1.35414 1.01893e+09 pippo 1.01893e+09
ODOM 0.612611 0.212524 1.35414 0 0 0 0 pippo 0
NEFF 23.5415
ODOM 0.638911 0.306168 1.24352 0 0 0 1.01893e+09 pippo 1.01893e+09
ODOM 0.674086 0.390689 1.09603 0 0 0 1.01893e+09 pippo 1.01893e+09
ODOM 0.745672 0.504708 0.960826 0 0 0 1.01893e+09 pippo 1.01893e+09
ODOM 0.790554 0.568093 0.930099 0 0 0 1.01893e+09 pippo 1.01893e+09
ODOM 0.82823 0.616575 0.917808 0 0 0 1.01893e+09 pippo 1.01893e+09
ODOM 0.852685 0.64924 0.94239 0 0 0 1.01893e+09 pippo 1.01893e+09
ODOM 0.859823 0.659142 1.02843 0 0 0 1.01893e+09 pippo 1.01893e+09
FLASER 361 10.91 10.98 11.06 11.12 11.12 11.03 11.02 10.96 10.95 10.88 10.87 10.8 10.8 10.73 10.73 10.66 10.66 10.61 10.6 10.56 10.55 10.7 10.75 11.04 11.08 2.57 2.56 2.41 2.41 2.38 2.38 2.34 2.34 2.32 2.32 2.3 2.3 2.27 2.27 2.25 2.25 2.23 2.23 2.21 2.21 2.19 2.18 2.16 2.16 2.16 2.16 2.14 2.13 2.12 2.12 2.1 2.1 2.09 2.09 2.08 2.08 2.06 2.06 2.05 2.05 2.04 2.04 2.04 2.04 2.03 2.03 2.03 2.04 2.17 2.25 2.5 2.5 2.5 2.5 2.26 2.23 2.2 2.19 2.2 2.2 2.21 2.21 2.22 2.22 2.23 2.23 2.24 2.24 2.25 2.25 2.26 2.26 2.26 2.26 2.27 2.28 2.29 2.29 2.3 2.31 2.32 2.32 2.34 2.34 2.35 2.35 2.37 2.37 2.39 2.39 2.41 2.41 2.43 2.43 2.45 2.45 2.48 2.48 2.5 2.51 2.53 2.54 2.55 2.56 2.58 2.58 2.61 2.61 2.63 2.64 2.76 2.75 2.75 2.75 2.78 2.79 2.87 2.88 2.96 2.98 3.06 3.07 3.16 3.17 3.22 3.23 3.19 3.18 3.15 3.15 3.13 3.13 3.1 3.1 3.07 3.07 3.05 3.04 3.02 3.01 2.99 2.99 2.97 2.97 3 3.01 3.82 3.82 3.74 3.73 3.68 3.68 3.63 3.62 3.56 3.56 5.31 5.43 5.41 5.41 5.49 5.51 2.01 2.01 2 1.99 1.98 1.99 1.97 1.97 1.95 1.95 1.95 1.95 1.71 1.69 1.56 1.56 1.53 1.53 1.51 1.51 1.5 1.5 1.5 1.5 1.48 1.48 1.47 1.46 1.45 1.45 1.48 1.49 1.55 1.56 1.61 1.63 1.84 1.85 1.87 1.87 1.87 1.87 1.87 1.87 1.87 1.87 1.87 1.87 1.85 1.8 1.59 1.58 1.58 1.58 1.59 1.58 1.59 1.6 1.6 1.6 1.59 1.59 1.68 1.71 1.91 1.91 1.92 1.92 1.93 1.93 1.93 1.94 1.94 1.94 1.95 1.96 1.97 1.97 1.98 1.98 1.99 1.99 2 2 2.01 2.01 2.03 2.03 2.05 2.04 2.06 2.06 2.06 2.07 2.08 2.08 2.1 2.1 2.12 2.11 2.14 2.14 2.16 2.17 2.22 2.22 2.24 2.25 2.26 2.27 2.29 2.3 2.33 2.33 2.35 2.36 2.39 2.39 2.41 2.42 2.47 2.47 2.5 2.51 2.53 2.53 2.56 2.57 2.6 2.6 2.21 2.18 2.11 2.11 2.12 2.12 2.17 2.16 2.32 2.83 2.85 2.86 2.35 2.3 2.22 2.22 2.23 2.23 2.23 2.24 2.52 2.86 2.9 2.89 2.86 2.86 2.89 2.91 2.86 2.82 2.78 2.77 2.72 2.72 2.7 2.7 2.72 2.73 2.81 2.82 2.61 2.61 2.6 2.6 0.923885 0.700493 0.953427 0.923885 0.700493 0.953427 1.01893e+09 pippo 1.01893e+09
ODOM 0.923885 0.700493 0.953427 0 0 0 0 pippo 0
NEFF 26.0138
ODOM 0.921627 0.697682 0.941136 0 0 0 1.01893e+09 pippo 1.01893e+09
ODOM 0.921627 0.697682 0.941136 0 0 0 1.01893e+09 pippo 1.01893e+09
ODOM 0.921627 0.697682 0.941136 0 0 0 1.01893e+09 pippo 1.01893e+09
ODOM 0.920542 0.696775 0.928845 0 0 0 1.01893e+09 pippo 1.01893e+09
ODOM 0.916025 0.691154 0.885826 0 0 0 1.01893e+09 pippo 1.01893e+09
ODOM 0.91142 0.684536 0.842808 0 0 0 1.01893e+09 pippo 1.01893e+09
ODOM 0.904822 0.678096 0.793643 0 0 0 1.01893e+09 pippo 1.01893e+09
ODOM 0.898225 0.671656 0.732188 0 0 0 1.01893e+09 pippo 1.01893e+09
ODOM 0.892801 0.66712 0.658442 0 0 0 1.01893e+09 pippo 1.01893e+09
ODOM 0.892801 0.66712 0.517095 0 0 0 1.01893e+09 pippo 1.01893e+09
ODOM 0.893797 0.667031 0.252837 0 0 0 1.01893e+09 pippo 1.01893e+09
FLASER 361 4.27 4.3 4.16 4.19 4.01 4.07 3.85 3.85 3.88 3.88 3.82 3.83 3.72 3.74 3.65 3.67 3.59 3.6 3.51 3.52 3.46 3.47 3.41 3.41 3.34 3.36 3.3 3.3 3.25 3.26 3.2 3.21 3.13 3.16 3.11 3.12 3.07 3.08 3.03 3.04 2.99 3 2.95 2.96 2.92 2.93 2.89 2.9 2.9 2.9 9.44 9.4 9.72 9.67 11.06 11.08 10.96 10.97 10.87 10.88 11.04 10.92 11.08 11.1 10.99 11.01 10.91 10.92 10.83 10.85 10.76 10.78 10.69 10.71 10.64 10.65 10.58 10.59 10.52 10.53 10.74 10.66 11.07 10.99 11.3 11.29 2.54 2.55 2.39 2.4 2.36 2.36 2.32 2.32 2.3 2.3 2.28 2.28 2.25 2.25 2.23 2.23 2.21 2.22 2.2 2.2 2.17 2.18 2.16 2.16 2.14 2.14 2.12 2.13 2.11 2.11 2.09 2.1 2.09 2.08 2.08 2.07 2.06 2.07 2.05 2.05 2.04 2.04 2.03 2.04 2.03 2.03 2.02 2.03 2.14 2.05 2.51 2.5 2.51 2.5 2.25 2.37 2.2 2.2 2.21 2.21 2.22 2.22 2.23 2.23 2.24 2.24 2.25 2.25 2.25 2.25 2.26 2.26 2.28 2.27 2.29 2.29 2.3 2.3 2.32 2.31 2.33 2.33 2.35 2.34 2.37 2.36 2.38 2.38 2.41 2.41 2.42 2.42 2.45 2.43 2.48 2.47 2.5 2.5 2.53 2.52 2.55 2.55 2.58 2.58 2.6 2.59 2.63 2.62 2.67 2.65 2.77 2.78 2.79 2.77 2.83 2.82 2.93 2.9 3.04 3.02 3.15 3.12 3.23 3.21 3.24 3.25 3.19 3.21 3.19 3.19 3.14 3.15 3.12 3.13 3.09 3.1 3.06 3.06 3.04 3.03 3.01 3.02 2.99 2.99 3.87 3.11 3.82 3.84 3.74 3.78 3.7 3.7 3.63 3.65 3.6 3.58 5.45 5.44 5.51 5.48 2.08 5.81 2.04 2.04 2.03 2.03 2.02 2.02 2 2.01 2 2 1.99 2 1.64 1.67 1.58 1.59 1.56 1.57 1.56 1.56 1.54 1.54 1.52 1.52 1.5 1.51 1.49 1.5 1.52 1.51 1.59 1.58 1.67 1.65 1.86 1.81 1.92 1.92 1.92 1.93 1.93 1.93 1.92 1.92 1.93 1.93 1.87 1.92 1.64 1.65 1.63 1.63 1.63 1.63 1.64 1.63 1.64 1.64 1.64 1.64 1.77 1.71 1.96 1.96 1.96 1.96 1.97 1.97 1.98 1.98 1.99 1.98 2 2 2.01 2.01 2.02 2.02 2.03 2.03 2.04 2.04 2.06 2.06 2.07 2.07 2.08 2.08 2.09 2.09 2.12 2.1 2.14 2.13 2.15 2.15 2.17 2.16 2.19 2.19 2.24 2.23 2.26 2.26 2.29 2.29 2.32 2.31 2.34 2.33 2.38 2.37 2.41 0.922012 0.651667 0.443462 0.922012 0.651667 0.443462 1.01893e+09 pippo 1.01893e+09
ODOM 0.922012 0.651667 0.443462 0 0 0 0 pippo 0
NEFF 26.117
ODOM 0.92589 0.653068 0.271387 0 0 0 1.01893e+09 pippo 1.01893e+09
ODOM 0.931757 0.654672 0.136186 0 0 0 1.01893e+09 pippo 1.01893e+09
ODOM 0.939716 0.655485 0.0685846 0 0 0 1.01893e+09 pippo 1.01893e+09
ODOM 0.969967 0.654553 -0.121926 0 0 0 1.01893e+09 pippo 1.01893e+09
FLASER 361 4.69 4.69 4.7 4.7 4.7 4.7 4.71 4.71 4.72 4.72 4.73 4.73 4.74 4.74 4.83 4.83 4.85 4.85 4.86 4.86 4.88 4.88 4.91 4.9 4.93 4.93 4.96 4.96 4.98 4.98 5.01 5.01 5.04 5.04 5.07 5.07 5.11 5.11 5.15 5.15 5.11 5.1 5.15 5.13 5.18 5.17 5.23 5.23 4.99 4.98 5.23 5.23 5.04 5.04 4.29 4.29 4.22 4.22 4.27 4.27 4.48 4.47 4.35 4.36 4.24 4.24 4.14 4.14 4.02 4.03 3.82 3.82 3.85 3.85 3.79 3.79 3.69 3.69 3.62 3.62 3.54 3.55 3.48 3.48 3.44 3.44 3.38 3.38 3.32 3.32 3.26 3.26 3.22 3.23 3.17 3.17 3.12 3.13 3.08 3.08 3.05 3.05 3.01 3.01 2.96 2.97 2.93 2.94 2.91 2.91 2.87 2.87 2.86 2.85 2.89 2.88 9.59 9.58 11.08 11.09 10.95 10.95 10.86 10.87 10.82 10.82 11.07 11.07 10.98 10.99 10.9 10.9 10.83 10.82 10.75 10.76 10.68 10.68 10.61 10.61 10.56 10.56 10.51 10.51 10.56 10.54 10.87 10.85 11.21 11.2 2.57 2.56 2.48 2.48 2.34 2.34 2.31 2.31 2.28 2.28 2.26 2.26 2.24 2.24 2.22 2.21 2.19 2.19 2.18 2.18 2.16 2.16 2.14 2.14 2.12 2.12 2.11 2.1 2.09 2.09 2.08 2.08 2.07 2.07 2.06 2.06 2.05 2.04 2.03 2.03 2.02 2.02 2.01 2.01 2.01 2 2 2 1.99 1.99 2.03 2.02 2.48 2.47 2.47 2.47 2.32 2.38 2.18 2.18 2.19 2.19 2.19 2.19 2.2 2.2 2.21 2.21 2.22 2.22 2.23 2.23 2.23 2.23 2.24 2.24 2.26 2.26 2.26 2.26 2.28 2.28 2.3 2.29 2.32 2.32 2.34 2.34 2.36 2.36 2.38 2.38 2.4 2.4 2.42 2.42 2.44 2.44 2.48 2.48 2.5 2.5 2.53 2.53 2.56 2.56 2.59 2.59 2.62 2.62 2.65 2.65 2.77 2.76 2.77 2.77 2.81 2.8 2.92 2.91 3.02 3.01 3.12 3.12 3.23 3.22 3.24 3.24 3.2 3.2 3.2 3.19 3.15 3.16 3.13 3.13 3.1 3.1 3.07 3.07 3.05 3.05 3.02 3.03 3 3 3.84 3.22 3.83 3.83 3.77 3.78 3.7 3.7 3.65 3.65 3.65 3.62 5.45 5.45 5.62 5.61 5.95 5.94 2.06 2.07 2.05 2.05 2.04 2.04 2.03 2.03 2.01 2.01 2 2 2 2 1.61 1.61 1.59 1.59 1.57 1.58 1.56 1.56 1.55 1.55 1.53 1.54 1.52 1.52 1.51 1.51 1.56 1.55 1.63 1.62 1.72 1.71 1.94 1.95 1.94 1.94 1.94 1.94 1.94 1.94 1.94 1.94 1.95 0.934004 0.572921 -0.109431 0.934004 0.572921 -0.109431 1.01893e+09 pippo 1.01893e+09
ODOM 0.934004 0.572921 -0.109431 0 0 0 0 pippo 0
NEFF 25.0217
ODOM 0.951463 0.569892 -0.213905 0 0 0 1.01893e+09 pippo 1.01893e+09
ODOM 0.962848 0.567172 -0.27536 0 0 0 1.01893e+09 pippo 1.01893e+09
ODOM 0.965942 0.566521 -0.281506 0 0 0 1.01893e+09 pippo 1.01893e+09
ODOM 0.965942 0.566521 -0.281506 0 0 0 1.01893e+09 pippo 1.01893e+09
ODOM 0.965942 0.566521 -0.281506 0 0 0 1.01893e+09 pippo 1.01893e+09
ODOM 0.965942 0.566521 -0.281506 0 0 0 1.01893e+09 pippo 1.01893e+09
ODOM 0.965942 0.566521 -0.281506 0 0 0 1.01893e+09 pippo 1.01893e+09
ODOM 0.965942 0.566521 -0.281506 0 0 0 1.01893e+09 pippo 1.01893e+09
ODOM 0.965942 0.566521 -0.281506 0 0 0 1.01893e+09 pippo 1.01893e+09
ODOM 0.965942 0.566521 -0.281506 0 0 0 1.01893e+09 pippo 1.01893e+09
ODOM 0.96705 0.565641 -0.281506 0 0 0 1.01893e+09 pippo 1.01893e+09
ODOM 0.987831 0.559974 -0.299942 0 0 0 1.01893e+09 pippo 1.01893e+09
ODOM 1.04334 0.54118 -0.361398 0 0 0 1.01893e+09 pippo 1.01893e+09
ODOM 1.10472 0.515008 -0.422853 0 0 0 1.01893e+09 pippo 1.01893e+09
ODOM 1.16755 0.484976 -0.465872 0 0 0 1.01893e+09 pippo 1.01893e+09
ODOM 1.24246 0.446264 -0.490454 0 0 0 1.01893e+09 pippo 1.01893e+09
ODOM 1.37216 0.368546 -0.588782 0 0 0 1.01893e+09 pippo 1.01893e+09
ODOM 1.45111 0.312179 -0.662529 0 0 0 1.01893e+09 pippo 1.01893e+09
FLASER 361 5.25 5.23 5.31 5.29 5.26 5.29 5.56 5.6 5.65 5.64 5.68 5.94 6.55 6.59 6.76 6.83 7.01 7.15 7.76 7.74 7.94 8.01 8.28 8.38 8.66 8.75 9.48 9.48 9.49 9.49 4.72 4.7 4.58 4.57 4.54 4.54 4.52 4.5 4.48 4.47 4.45 4.44 4.43 4.42 4.4 4.39 4.4 4.42 4.53 4.46 4.08 4.07 4.07 4.05 4.03 4.02 4.06 4.13 4.45 4.47 4.47 4.46 4.47 4.46 4.46 4.46 4.46 4.46 4.46 4.46 4.47 4.47 4.47 4.47 4.47 4.48 4.55 4.56 4.57 4.57 4.58 4.58 4.59 4.59 4.6 4.6 4.62 4.62 4.63 4.63 4.65 4.65 4.67 4.67 4.68 4.69 4.7 4.7 4.71 4.72 4.74 4.74 4.77 4.77 4.73 4.72 4.74 4.75 4.78 4.78 4.81 4.79 4.55 4.58 4.88 4.86 4.72 4.06 3.87 3.83 3.82 3.82 3.85 3.85 3.95 4.07 3.99 3.95 3.86 3.83 3.74 3.71 3.59 3.36 3.31 3.31 3.35 3.35 3.37 3.35 3.28 3.27 3.21 3.19 3.14 3.12 3.07 3.05 3.01 3 2.95 2.95 2.9 2.89 2.85 2.83 2.8 2.79 2.76 2.75 2.71 2.7 2.67 2.66 2.59 2.58 2.58 2.57 2.55 2.54 2.52 2.5 2.49 2.47 2.45 2.43 2.41 2.39 2.38 2.37 2.35 2.35 2.35 2.34 2.37 2.37 8.79 8.83 9.06 9.1 10.63 10.57 10.48 10.45 10.39 10.37 10.3 10.31 10.59 10.57 10.51 10.49 10.43 10.42 10.36 10.34 10.28 10.26 10.22 10.21 10.16 10.14 10.1 10.08 10.05 10.03 9.99 9.98 10.11 10.17 10.42 10.48 10.75 10.77 10.76 10.74 10.71 10.7 10.67 10.66 2.04 2.01 2 1.99 1.87 1.86 1.85 1.84 1.83 1.82 1.81 1.8 1.79 1.78 1.78 1.78 1.77 1.76 1.76 1.75 1.74 1.74 1.73 1.73 1.73 1.72 1.71 1.7 1.7 1.7 1.69 1.69 1.68 1.68 1.68 1.67 1.66 1.66 1.66 1.66 1.65 1.65 1.65 1.64 1.65 1.64 1.64 1.63 1.64 1.63 1.63 1.63 1.63 1.62 1.62 1.62 1.61 1.61 1.62 1.61 1.62 1.62 1.62 1.62 1.63 1.63 2.01 2.05 2.11 2.1 1.88 1.87 1.84 1.84 1.86 1.86 1.87 1.87 1.88 1.88 1.89 1.89 1.9 1.9 1.92 1.92 1.94 1.94 1.96 1.96 1.98 1.98 2 2 2.02 2.02 2.05 2.04 2.07 2.07 2.09 2.09 2.12 2.12 2.15 2.15 2.18 2.18 2.2 2.21 2.24 2.24 2.27 2.28 2.3 2.3 2.34 2.34 2.37 2.37 2.42 2.42 2.47 2.47 2.51 2.52 2.63 2.63 2.66 2.66 2.77 1.35997 0.290351 -0.749878 1.35997 0.290351 -0.749878 1.01893e+09 pippo 1.01893e+09
ODOM 1.35997 0.290351 -0.749878 0 0 0 0 pippo 0
NEFF 24.3877
ODOM 1.4278 0.223152 -0.811333 0 0 0 1.01893e+09 pippo 1.01893e+09
ODOM 1.49279 0.149875 -0.866643 0 0 0 1.01893e+09 pippo 1.01893e+09
ODOM 1.55487 0.073518 -0.915807 0 0 0 1.01893e+09 pippo 1.01893e+09
ODOM 1.78197 -0.298505 -1.10017 0 0 0 1.01893e+09 pippo 1.01893e+09
ODOM 1.80414 -0.341924 -1.09403 0 0 0 1.01893e+09 pippo 1.01893e+09
ODOM 1.8714 -0.462157 -1.04486 0 0 0 1.01893e+09 pippo 1.01893e+09
ODOM 1.91122 -0.529109 -1.02028 0 0 0 1.01893e+09 pippo 1.01893e+09
ODOM 1.94463 -0.581229 -0.989553 0 0 0 1.01893e+09 pippo 1.01893e+09
FLASER 361 5.91 5.83 5.78 5.71 5.44 5.38 5.34 5.29 5.26 5.21 5.18 5.13 5.1 5.03 5.03 5.1 5.07 5.03 5.07 5.26 5.3 5.36 5.39 5.36 5.35 5.43 5.94 6.03 6.08 6.18 6.23 6.33 6.39 6.48 6.55 6.65 6.8 7.44 7.4 7.35 7.35 4.3 4.26 4.12 4.1 4.05 4.05 4.01 4 3.97 3.95 3.93 3.91 3.89 3.87 3.84 3.83 3.83 3.83 3.48 3.47 3.44 3.42 3.4 3.39 3.37 3.38 3.44 3.48 3.6 3.79 3.81 3.8 3.79 3.78 3.77 3.77 3.74 3.74 3.72 3.72 3.72 3.72 3.71 3.7 3.69 3.7 3.69 3.69 3.68 3.68 3.69 3.77 3.74 3.74 3.74 3.77 3.74 3.74 3.74 3.74 3.74 3.74 3.74 3.74 3.74 3.74 3.73 3.74 3.74 3.74 3.74 3.77 3.77 3.78 3.79 3.79 3.81 3.8 3.82 3.81 3.83 3.83 3.82 3.82 3.82 3.83 3.84 3.79 3.77 3.78 3.79 3.8 3.81 3.83 3.83 3.78 3.53 3.59 3.87 3.89 3.18 2.97 2.84 2.81 2.78 2.79 2.8 2.82 2.83 2.84 2.92 3.07 3.01 2.97 2.89 2.86 2.81 2.77 2.71 2.68 2.62 2.6 2.54 2.52 2.47 2.43 2.39 2.37 2.33 2.31 2.27 2.25 2.21 2.2 2.16 2.14 2.1 2.09 2.06 2.04 2.02 2.01 1.98 1.96 1.95 1.94 1.91 1.9 1.87 1.85 1.82 1.81 1.81 1.8 1.78 1.77 1.75 1.73 1.71 1.7 1.69 1.68 1.67 1.66 1.64 1.64 1.62 1.62 1.6 1.59 1.57 1.58 1.56 1.56 1.55 1.54 1.53 1.52 1.51 1.51 1.5 1.5 1.48 1.48 1.46 1.46 1.45 1.45 1.44 1.44 1.42 1.42 1.41 1.41 1.4 1.4 1.39 1.39 1.39 1.39 1.38 1.38 1.37 1.39 1.39 1.39 1.44 9.39 9.35 9.33 9.3 9.29 9.26 9.24 9.21 9.2 9.18 9.17 9.14 9.14 9.24 9.38 9.58 9.73 9.94 9.97 9.96 9.97 9.94 9.93 9.91 9.9 9.88 9.88 9.88 9.87 9.85 9.82 9.84 9.85 9.84 9.84 9.84 9.85 9.84 9.85 9.86 9.86 9.85 9.86 9.84 9.63 9.25 9 8.62 8.56 8.55 8.55 9.02 9.01 9.03 9.04 9.05 9.06 9.08 9.09 9.11 9.13 9.14 9.16 9.18 9.19 9.22 9.24 9.26 9.29 9.3 9.32 9.36 9.38 9.39 1.47 1.46 1.45 1.43 1.41 1.4 1.41 1.42 1.43 1.43 1.4 1.4 1.4 1.34 1.31 1.31 1.32 1.32 1.33 1.33 1.33 1.32 1.33 1.32 1.33 1.33 1.33 1.33 1.33 1.33 1.34 1.34 1.34 1.35 1.34 1.35 1.35 1.36 1.36 1.90616 -0.613581 -1.06142 1.90616 -0.613581 -1.06142 1.01893e+09 pippo 1.01893e+09
ODOM 1.90616 -0.613581 -1.06142 0 0 0 0 pippo 0
NEFF 25.1209
ODOM 1.93588 -0.664969 -1.03684 0 0 0 1.01893e+09 pippo 1.01893e+09
ODOM 1.94329 -0.678315 -1.03684 0 0 0 1.01893e+09 pippo 1.01893e+09
ODOM 1.94047 -0.674184 -1.03684 0 0 0 1.01893e+09 pippo 1.01893e+09
ODOM 1.9377 -0.669055 -1.04299 0 0 0 1.01893e+09 pippo 1.01893e+09
ODOM 1.93679 -0.667012 -1.04299 0 0 0 1.01893e+09 pippo 1.01893e+09
ODOM 1.93679 -0.667012 -1.04299 0 0 0 1.01893e+09 pippo 1.01893e+09
ODOM 1.93679 -0.667012 -1.04299 0 0 0 1.01893e+09 pippo 1.01893e+09
ODOM 1.93679 -0.667012 -1.04299 0 0 0 1.01893e+09 pippo 1.01893e+09
ODOM 1.94233 -0.677271 -1.11673 0 0 0 1.01893e+09 pippo 1.01893e+09
ODOM 1.95484 -0.710867 -1.29495 0 0 0 1.01893e+09 pippo 1.01893e+09
ODOM 1.96767 -0.781515 -1.5039 0 0 0 1.01893e+09 pippo 1.01893e+09
ODOM 1.96774 -0.824562 -1.6391 0 0 0 1.01893e+09 pippo 1.01893e+09
FLASER 361 13.36 13.36 13.4 13.4 13.46 13.46 13.38 13.37 12.35 12.36 11.6 11.62 11.14 11.14 10.53 10.54 10.02 10.02 9.57 9.58 9.16 9.17 8.78 8.78 8.44 8.44 8.12 8.13 7.83 7.83 7.56 7.57 7.32 7.32 7.09 7.08 6.88 6.87 6.68 6.68 6.49 6.49 6.3 6.3 6.15 6.15 6 6 5.86 5.86 5.72 5.72 5.36 5.36 5.27 5.27 5.18 5.17 5.08 5.08 4.98 4.98 4.99 4.99 4.96 4.95 4.99 4.99 5.22 5.22 5.3 5.3 5.26 5.26 5.77 5.76 5.95 5.94 6.09 6.08 6.22 6.21 6.37 6.37 6.52 6.51 7.42 7.43 7.26 7.26 4.02 4.02 3.95 3.95 3.91 3.9 3.85 3.85 3.8 3.8 3.74 3.74 3.7 3.7 3.67 3.66 3.36 3.36 3.29 3.3 3.26 3.26 3.21 3.21 3.27 3.27 3.35 3.36 3.64 3.64 3.62 3.62 3.6 3.6 3.59 3.59 3.57 3.57 3.56 3.55 3.54 3.53 3.52 3.52 3.51 3.51 3.51 3.51 3.5 3.5 3.5 3.5 3.56 3.55 3.55 3.56 3.57 3.57 3.57 3.56 3.57 3.56 3.56 3.56 3.56 3.56 3.55 3.55 3.55 3.55 3.55 3.55 3.56 3.56 3.57 3.57 3.59 3.58 3.59 3.59 3.6 3.6 3.6 3.6 3.61 3.6 3.6 3.6 3.62 3.61 3.54 3.54 3.56 3.56 3.58 3.58 3.6 3.6 3.43 3.46 3.4 3.38 3.66 3.65 2.74 2.76 2.59 2.6 2.58 2.57 2.61 2.61 2.62 2.61 2.73 2.73 2.8 2.8 2.71 2.71 2.61 2.61 2.53 2.53 2.43 2.44 2.36 2.35 2.29 2.29 2.22 2.23 2.17 2.17 2.11 2.11 2.06 2.05 2.01 2.01 1.96 1.96 1.92 1.92 1.87 1.87 1.83 1.83 1.8 1.8 1.77 1.77 1.74 1.75 1.71 1.71 1.67 1.67 1.65 1.66 1.62 1.62 1.6 1.6 1.57 1.57 1.56 1.56 1.53 1.53 1.51 1.51 1.49 1.49 1.48 1.48 1.46 1.46 1.45 1.44 1.42 1.42 1.41 1.41 1.39 1.38 1.38 1.38 1.37 1.38 1.36 1.36 1.35 1.34 1.33 1.33 1.32 1.32 1.31 1.31 1.31 1.3 1.3 1.29 1.29 1.29 1.28 1.28 1.27 1.27 1.26 1.26 1.26 1.26 1.25 1.25 1.24 1.24 1.24 1.23 1.24 1.23 1.26 1.25 9.02 9.02 9.14 9.13 9.51 9.49 9.85 9.84 9.86 9.85 9.83 9.83 9.8 9.8 9.79 9.79 9.77 9.77 9.75 9.75 9.74 9.74 9.75 9.75 9.75 9.75 9.76 9.75 9.77 9.76 9.79 9.79 9.76 9.77 9.28 9.31 8.9 8.9 8.54 8.54 8.65 8.55 8.98 8.98 9 9 9.03 1.95057 -0.820179 -1.51723 1.95057 -0.820179 -1.51723 1.01893e+09 pippo 1.01893e+09
ODOM 1.95057 -0.820179 -1.51723 0 0 0 0 pippo 0
NEFF 24.5302
ODOM 1.94996 -0.851318 -1.64014 0 0 0 1.01893e+09 pippo 1.01893e+09
ODOM 1.94759 -0.872563 -1.74461 0 0 0 1.01893e+09 pippo 1.01893e+09
ODOM 1.94552 -0.884758 -1.80607 0 0 0 1.01893e+09 pippo 1.01893e+09
ODOM 1.9446 -0.885832 -1.81836 0 0 0 1.01893e+09 pippo 1.01893e+09
ODOM 1.94467 -0.886829 -1.81836 0 0 0 1.01893e+09 pippo 1.01893e+09
ODOM 1.94467 -0.886829 -1.81836 0 0 0 1.01893e+09 pippo 1.01893e+09
ODOM 1.94467 -0.886829 -1.81836 0 0 0 1.01893e+09 pippo 1.01893e+09
ODOM 1.94467 -0.886829 -1.81836 0 0 0 1.01893e+09 pippo 1.01893e+09
ODOM 1.94467 -0.886829 -1.81836 0 0 0 1.01893e+09 pippo 1.01893e+09
ODOM 1.94467 -0.886829 -1.81836 0 0 0 1.01893e+09 pippo 1.01893e+09
ODOM 1.94467 -0.886829 -1.81836 0 0 0 1.01893e+09 pippo 1.01893e+09
ODOM 1.94467 -0.886829 -1.81836 0 0 0 1.01893e+09 pippo 1.01893e+09
ODOM 1.94467 -0.886829 -1.81836 0 0 0 1.01893e+09 pippo 1.01893e+09
ODOM 1.94467 -0.886829 -1.81836 0 0 0 1.01893e+09 pippo 1.01893e+09
ODOM 1.9446 -0.885832 -1.81221 0 0 0 1.01893e+09 pippo 1.01893e+09
ODOM 1.94621 -0.880693 -1.77534 0 0 0 1.01893e+09 pippo 1.01893e+09
ODOM 1.94751 -0.871566 -1.73232 0 0 0 1.01893e+09 pippo 1.01893e+09
ODOM 1.94889 -0.863436 -1.68316 0 0 0 1.01893e+09 pippo 1.01893e+09
ODOM 1.94935 -0.85638 -1.59712 0 0 0 1.01893e+09 pippo 1.01893e+09
FLASER 361 3.51 3.53 3.52 3.51 3.51 3.51 3.52 3.52 3.52 13.07 13.07 13.09 13.09 13.1 13.11 13.13 13.13 13.16 13.16 13.18 13.19 13.2 13.22 13.25 13.27 13.29 13.31 13.35 13.36 13.4 13.41 13.45 13.47 13.02 12.77 11.99 11.87 11.34 11.32 10.81 10.71 10.25 10.16 9.74 9.67 9.3 9.23 8.9 8.85 8.55 8.49 8.22 8.17 7.92 7.86 7.63 7.59 7.38 7.33 7.13 7.1 6.92 6.87 6.72 6.68 6.52 6.49 6.27 6.27 6.17 6.13 6.01 5.99 5.86 5.84 5.72 5.7 5.42 5.36 5.25 5.23 5.15 5.13 5.04 5.03 4.96 4.94 4.9 4.91 4.94 4.92 4.91 4.92 5.14 5.15 5.22 5.23 5.22 5.21 5.28 5.35 5.84 5.86 5.96 5.98 6.1 6.13 6.24 6.25 6.38 6.41 6.59 6.79 7.25 7.23 4.02 3.99 3.91 3.9 3.85 3.85 3.8 3.79 3.74 3.73 3.69 3.69 3.65 3.64 3.62 3.6 3.38 3.33 3.25 3.24 3.21 3.2 3.16 3.15 3.17 3.19 3.25 3.27 3.44 3.49 3.56 3.56 3.54 3.54 3.52 3.52 3.51 3.5 3.49 3.49 3.47 3.47 3.46 3.46 3.46 3.46 3.44 3.44 3.43 3.44 3.43 3.42 3.49 3.5 3.49 3.49 3.49 3.49 3.48 3.48 3.48 3.48 3.48 3.47 3.47 3.47 3.48 3.47 3.47 3.47 3.48 3.48 3.48 3.48 3.48 3.48 3.49 3.49 3.5 3.5 3.51 3.5 3.51 3.51 3.52 3.52 3.53 3.53 3.54 3.54 3.55 3.54 3.47 3.48 3.49 3.49 3.51 3.51 3.54 3.53 3.43 3.36 3.31 3.33 3.59 3.59 2.76 2.71 2.55 2.53 2.52 2.51 2.53 2.53 2.55 2.56 2.61 2.62 2.77 2.75 2.67 2.65 2.58 2.57 2.5 2.49 2.41 2.4 2.34 2.33 2.18 2.14 2.14 2.14 2.13 2.12 2.09 2.08 2.04 2.04 2 2 1.95 1.94 1.91 1.9 1.87 1.86 1.82 1.83 1.79 1.79 1.75 1.75 1.72 1.72 1.71 1.7 1.68 1.68 1.65 1.64 1.62 1.62 1.6 1.59 1.57 1.56 1.54 1.54 1.52 1.52 1.5 1.5 1.49 1.49 1.47 1.47 1.45 1.45 1.43 1.43 1.41 1.41 1.4 1.4 1.39 1.4 1.36 1.36 1.35 1.35 1.34 1.34 1.34 1.34 1.32 1.33 1.32 1.31 1.31 1.3 1.3 1.3 1.29 1.29 1.28 1.28 1.28 1.27 1.27 1.27 1.26 1.26 1.24 1.25 1.24 1.24 1.24 1.24 1.23 1.23 1.23 1.23 1.23 1.23 1.23 1.23 1.23 1.24 1.24 1.25 9.84 9.85 9.84 9.85 9.82 9.82 9.8 9.79 9.78 9.78 9.76 9.77 9.74 9.74 1.94185 -0.868262 -1.74712 1.94185 -0.868262 -1.74712 1.01893e+09 pippo 1.01893e+09
ODOM 1.94185 -0.868262 -1.74712 0 0 0 0 pippo 0
NEFF 24.0916
ODOM 1.94185 -0.868262 -1.61192 0 0 0 1.01893e+09 pippo 1.01893e+09
ODOM 1.94163 -0.871254 -1.33537 0 0 0 1.01893e+09 pippo 1.01893e+09
ODOM 1.94085 -0.868189 -1.1633 0 0 0 1.01893e+09 pippo 1.01893e+09
FLASER 361 7.33 7.05 7.08 6.83 6.87 6.63 6.68 6.42 6.43 6.29 6.31 6.11 6.15 5.96 5.99 5.81 5.84 5.69 5.71 5.32 5.34 5.22 5.24 5.12 5.15 5.02 5.03 4.94 4.96 5 4.99 4.92 4.91 5.1 4.99 5.22 5.2 5.26 5.25 5.25 5.23 5.81 5.78 5.93 5.91 6.06 6.04 6.19 6.16 6.32 6.31 6.49 6.46 7.34 7.44 4.1 7.21 3.94 3.95 3.88 3.9 3.83 3.84 3.79 3.8 3.72 3.73 3.68 3.69 3.63 3.64 3.62 3.63 3.27 3.28 3.23 3.24 3.19 3.19 3.17 3.16 3.26 3.24 3.38 3.31 3.58 3.58 3.56 3.56 3.54 3.54 3.53 3.53 3.5 3.51 3.5 3.5 3.48 3.49 3.47 3.47 3.46 3.46 3.45 3.45 3.44 3.44 3.48 3.45 3.49 3.49 3.49 3.49 3.49 3.49 3.49 3.49 3.48 3.49 3.49 3.49 3.49 3.48 3.49 3.49 3.48 3.49 3.49 3.5 3.5 3.5 3.49 3.49 3.49 3.49 3.5 3.5 3.52 3.52 3.53 3.53 3.53 3.53 3.54 3.54 3.54 3.54 3.48 3.49 3.5 3.49 3.51 3.5 3.54 3.54 3.39 3.51 3.32 3.29 3.58 3.58 2.72 2.76 2.53 2.55 2.51 2.51 2.53 2.53 2.56 2.55 2.62 2.59 2.76 2.78 2.66 2.68 2.58 2.59 2.48 2.5 2.39 2.41 2.32 2.34 2.26 2.27 2.2 2.2 2.13 2.14 2.07 2.08 2.03 2.04 1.98 1.99 1.93 1.94 1.88 1.9 1.85 1.86 1.8 1.81 1.77 1.78 1.74 1.74 1.7 1.71 1.68 1.7 1.65 1.66 1.62 1.63 1.6 1.61 1.56 1.57 1.55 1.55 1.53 1.53 1.5 1.5 1.48 1.48 1.45 1.47 1.44 1.45 1.43 1.43 1.42 1.42 1.39 1.4 1.38 1.38 1.36 1.37 1.35 1.35 1.34 1.34 1.33 1.34 1.32 1.32 1.31 1.31 1.3 1.3 1.29 1.29 1.28 1.28 1.27 1.26 1.25 1.25 1.26 1.25 1.25 1.25 1.24 1.24 1.24 1.24 1.23 1.23 1.23 1.22 1.22 1.22 1.22 1.21 1.21 1.21 1.21 1.21 1.22 1.22 1.22 1.22 9.74 9.68 9.82 9.83 9.81 9.81 9.78 9.79 9.77 9.77 9.75 9.76 9.75 9.74 9.71 9.7 9.73 9.73 9.73 9.73 9.74 9.73 9.75 9.75 9.76 9.76 9.76 9.76 9.45 9.55 8.91 8.99 8.56 8.48 8.5 8.57 8.95 8.95 8.98 8.98 9.02 9.01 9.04 9.04 9.09 9.08 9.12 9.11 9.16 9.15 9.21 9.2 9.26 9.25 9.31 9.3 9.37 9.35 9.12 9.18 7.19 9.09 9.17 9.15 6.97 6.89 7.63 7.68 7.45 7.5 7.19 7.24 6.95 6.99 1.96476 -0.886762 -1.2383 1.96476 -0.886762 -1.2383 1.01893e+09 pippo 1.01893e+09
ODOM 1.96476 -0.886762 -1.2383 0 0 0 0 pippo 0
NEFF 24.3613
ODOM 1.96491 -0.885773 -1.06008 0 0 0 1.01893e+09 pippo 1.01893e+09
ODOM 1.96659 -0.888046 -0.857275 0 0 0 1.01893e+09 pippo 1.01893e+09
ODOM 1.96926 -0.890467 -0.672909 0 0 0 1.01893e+09 pippo 1.01893e+09
FLASER 361 3.69 3.64 3.65 3.33 3.42 3.29 3.3 3.25 3.25 3.2 3.21 3.24 3.23 3.31 3.31 3.63 3.55 3.6 3.6 3.58 3.58 3.56 3.56 3.54 3.54 3.53 3.53 3.51 3.51 3.5 3.5 3.49 3.49 3.48 3.48 3.47 3.47 3.45 3.45 3.53 3.53 3.52 3.52 3.5 3.5 3.5 3.5 3.5 3.49 3.5 3.49 3.49 3.49 3.49 3.5 3.49 3.49 3.5 3.5 3.5 3.5 3.51 3.51 3.51 3.51 3.52 3.51 3.53 3.53 3.53 3.53 3.53 3.53 3.54 3.54 3.56 3.55 3.5 3.52 3.5 3.5 3.52 3.51 3.54 3.54 3.55 3.55 3.27 3.27 3.59 3.59 2.82 3.03 2.57 2.59 2.52 2.53 2.55 2.54 2.57 2.56 2.62 2.6 2.77 2.79 2.67 2.69 2.58 2.6 2.5 2.5 2.4 2.41 2.17 2.27 2.04 2.04 2.04 2.04 2.06 2.05 2.06 2.06 2.02 2.03 1.97 1.98 1.92 1.92 1.88 1.88 1.84 1.85 1.8 1.8 1.75 1.76 1.72 1.73 1.69 1.69 1.68 1.68 1.64 1.64 1.61 1.61 1.58 1.58 1.56 1.56 1.53 1.54 1.51 1.51 1.49 1.49 1.46 1.48 1.45 1.45 1.44 1.44 1.42 1.42 1.4 1.4 1.38 1.39 1.36 1.37 1.33 1.34 1.34 1.34 1.32 1.32 1.31 1.31 1.29 1.3 1.28 1.29 1.27 1.28 1.27 1.26 1.26 1.26 1.26 1.26 1.25 1.25 1.24 1.24 1.22 1.23 1.21 1.22 1.2 1.21 1.2 1.21 1.21 1.21 1.19 1.2 1.19 1.2 1.19 1.19 1.18 1.18 1.2 1.2 1.21 1.19 9.45 9.4 9.8 9.78 9.8 9.8 9.77 9.77 9.75 9.76 9.73 9.74 9.71 9.71 9.7 9.71 9.7 9.69 9.7 9.7 9.7 9.7 9.7 9.7 9.72 9.71 9.74 9.74 9.72 9.73 9.21 9.28 8.69 8.87 8.65 8.6 8.51 8.49 8.92 8.94 8.97 8.96 8.99 8.99 9.03 9.02 9.07 9.06 9.11 9.11 9.15 9.15 9.2 9.19 9.25 9.24 9.3 9.29 9.36 9.35 9.06 9.07 7.09 7.11 7 6.97 6.98 6.99 7.17 7.24 7.34 7.38 7.09 7.12 6.86 6.89 1.95 6.68 1.43 1.43 1.42 1.43 1.4 1.4 1.41 1.4 1.43 1.43 1.41 1.41 1.41 1.4 1.34 1.35 1.34 1.33 1.34 1.34 1.34 1.34 1.36 1.36 1.36 1.36 1.37 1.37 1.38 1.38 1.39 1.39 1.4 1.4 1.42 1.42 1.42 1.42 1.43 1.43 1.44 1.44 1.46 1.46 1.47 1.47 1.49 1.49 1.51 1.51 1.53 1.53 1.54 1.54 1.56 1.55 1.58 1.57 1.59 1.59 1.61 1.61 1.64 1.64 1.66 1.66 2.00051 -0.870378 -0.647909 2.00051 -0.870378 -0.647909 1.01893e+09 pippo 1.01893e+09
ODOM 2.00051 -0.870378 -0.647909 0 0 0 0 pippo 0
NEFF 23.2113
ODOM 2.0231 -0.883249 -0.432815 0 0 0 1.01893e+09 pippo 1.01893e+09
ODOM 2.08824 -0.902391 -0.125539 0 0 0 1.01893e+09 pippo 1.01893e+09
FLASER 361 3.51 3.51 3.51 3.51 3.51 3.51 3.51 3.51 3.51 3.52 3.52 3.52 3.52 3.53 3.53 3.54 3.54 3.54 3.54 3.55 3.55 3.55 3.55 3.56 3.56 3.49 3.5 3.51 3.5 3.52 3.51 3.54 3.54 3.34 3.55 3.43 3.29 3.6 3.59 2.6 2.65 2.51 2.52 2.52 2.52 2.54 2.54 2.56 2.55 2.8 2.83 2.69 2.73 2.58 2.62 2.49 2.53 2.39 2.43 1.97 2.05 1.97 1.98 1.99 1.98 2.01 2 2.03 2.03 1.99 2.01 1.94 1.96 1.89 1.9 1.85 1.87 1.81 1.82 1.75 1.77 1.72 1.73 1.68 1.7 1.65 1.67 1.64 1.65 1.6 1.61 1.56 1.58 1.54 1.55 1.51 1.53 1.49 1.5 1.46 1.47 1.43 1.45 1.42 1.42 1.4 1.41 1.38 1.39 1.35 1.37 1.34 1.35 1.33 1.34 1.31 1.32 1.27 1.28 1.27 1.27 1.26 1.26 1.26 1.26 1.25 1.26 1.24 1.25 1.23 1.23 1.22 1.23 1.21 1.21 1.2 1.2 1.19 1.2 1.17 1.18 1.17 1.17 1.17 1.17 1.16 1.16 1.14 1.15 1.14 1.14 1.14 1.15 1.14 1.14 1.13 1.13 1.13 1.13 1.14 1.14 1.14 1.15 8.92 8.9 9.27 9.17 9.64 9.52 9.74 9.74 9.73 9.75 9.7 9.71 9.68 9.69 9.66 9.67 9.67 9.67 9.61 9.62 9.65 9.65 9.64 9.64 9.65 9.65 9.65 9.65 9.68 9.67 9.67 9.68 9.41 9.58 8.85 9.01 8.4 8.47 8.4 8.4 8.85 8.61 8.88 8.88 8.91 8.9 8.95 8.95 8.99 8.98 9.01 9 9.06 9.05 9.1 9.09 9.15 9.14 9.19 9.18 9.26 9.24 9.13 9.27 7.06 8.98 7.04 7.03 7.05 6.87 7.33 7.16 7.12 7.18 7.19 7.27 6.95 7.02 6.71 6.78 6.54 6.59 1.4 1.54 1.37 1.38 1.34 1.35 1.34 1.34 1.34 1.35 1.37 1.37 1.35 1.35 1.35 1.35 1.27 1.29 1.27 1.28 1.28 1.28 1.29 1.29 1.3 1.3 1.31 1.31 1.32 1.31 1.32 1.33 1.35 1.34 1.34 1.34 1.35 1.36 1.37 1.37 1.38 1.38 1.4 1.4 1.42 1.41 1.42 1.42 1.43 1.43 1.45 1.45 1.47 1.47 1.49 1.49 1.51 1.51 1.53 1.53 1.54 1.54 1.57 1.57 1.59 1.59 1.61 1.61 1.65 1.64 1.67 1.66 1.7 1.7 1.73 1.72 1.76 1.76 2.16 2.16 2.25 2.24 2.33 2.32 2.42 2.41 2.54 2.52 2.66 2.63 2.78 2.74 2.92 2.88 3.04 3 3.34 3.28 3.83 3.83 3.82 3.83 3.83 3.84 3.84 3.84 3.84 3.84 3.84 3.84 3.84 3.85 3.85 3.85 20.18 18.07 2.02886 -0.90928 -0.192081 2.02886 -0.90928 -0.192081 1.01893e+09 pippo 1.01893e+09
ODOM 2.02886 -0.90928 -0.192081 0 0 0 0 pippo 0
NEFF 24.2612
ODOM 2.05987 -0.912177 -0.0322978 0 0 0 1.01893e+09 pippo 1.01893e+09
ODOM 2.07714 -0.912435 0.0660312 0 0 0 1.01893e+09 pippo 1.01893e+09
ODOM 2.08027 -0.912018 0.0844672 0 0 0 1.01893e+09 pippo 1.01893e+09
ODOM 2.07812 -0.912623 0.0660312 0 0 0 1.01893e+09 pippo 1.01893e+09
ODOM 2.07615 -0.912246 0.0598852 0 0 0 1.01893e+09 pippo 1.01893e+09
ODOM 2.07714 -0.912435 0.0598852 0 0 0 1.01893e+09 pippo 1.01893e+09
ODOM 2.07714 -0.912435 0.0598852 0 0 0 1.01893e+09 pippo 1.01893e+09
ODOM 2.07714 -0.912435 0.0598852 0 0 0 1.01893e+09 pippo 1.01893e+09
ODOM 2.07714 -0.912435 0.0598852 0 0 0 1.01893e+09 pippo 1.01893e+09
ODOM 2.07714 -0.912435 0.0598852 0 0 0 1.01893e+09 pippo 1.01893e+09
ODOM 2.07714 -0.912435 0.0598852 0 0 0 1.01893e+09 pippo 1.01893e+09
ODOM 2.07714 -0.912435 0.0598852 0 0 0 1.01893e+09 pippo 1.01893e+09
ODOM 2.08125 -0.912207 0.0353032 0 0 0 1.01893e+09 pippo 1.01893e+09
ODOM 2.10263 -0.912237 -0.0998978 0 0 0 1.01893e+09 pippo 1.01893e+09
ODOM 2.14093 -0.919588 -0.265828 0 0 0 1.01893e+09 pippo 1.01893e+09
FLASER 361 3.56 3.56 3.5 3.5 3.52 3.51 3.53 3.53 3.55 3.54 3.39 3.55 3.43 3.33 2.73 2.79 2.51 2.52 2.52 2.51 2.53 2.53 2.54 2.55 2.68 2.62 2.75 2.77 2.63 2.65 2.51 2.52 2.37 2.38 1.93 1.93 1.94 1.94 1.96 1.95 1.97 1.97 1.99 1.99 1.94 1.94 1.88 1.89 1.82 1.83 1.78 1.79 1.72 1.73 1.68 1.68 1.63 1.64 1.61 1.6 1.58 1.58 1.54 1.55 1.51 1.51 1.48 1.48 1.44 1.45 1.43 1.42 1.39 1.39 1.36 1.37 1.34 1.34 1.33 1.33 1.3 1.3 1.28 1.28 1.26 1.26 1.25 1.25 1.2 1.21 1.16 1.17 1.18 1.16 1.17 1.17 1.17 1.16 1.14 1.14 1.14 1.13 1.12 1.12 1.11 1.11 1.1 1.1 1.09 1.09 1.07 1.08 1.08 1.08 1.07 1.07 1.06 1.06 1.05 1.05 1.05 1.04 1.03 1.04 1.02 1.01 1.03 1.02 1.02 1 1 0.99 0.99 1.01 1.02 1.03 1.02 1.02 1.1 1.02 8.82 8.82 8.8 8.8 8.78 8.77 9.08 9.01 9.42 9.35 9.62 9.62 9.62 9.62 9.6 9.59 9.57 9.57 9.55 9.55 9.54 9.54 9.5 9.51 9.51 9.5 9.51 9.51 9.51 9.51 9.52 9.51 9.54 9.53 9.54 9.55 9.52 9.53 8.99 9.09 8.43 8.67 8.26 8.25 8.3 8.28 8.74 8.73 8.76 8.75 8.79 8.78 8.82 8.82 8.85 8.84 8.9 8.89 8.94 8.91 8.98 8.97 9.03 9.01 9.08 9.07 9.14 9.12 8.89 8.95 6.94 6.94 6.9 6.93 6.75 6.8 7.28 6.97 6.87 6.84 7.05 7.09 6.81 6.85 6.59 6.62 6.38 6.41 1.76 6.26 1.66 1.74 1.24 1.25 1.23 1.24 1.2 1.21 1.22 1.21 1.23 1.23 1.24 1.25 1.22 1.22 1.23 1.23 1.19 1.2 1.16 1.16 1.16 1.16 1.17 1.17 1.18 1.17 1.18 1.18 1.19 1.19 1.2 1.2 1.21 1.21 1.23 1.23 1.24 1.23 1.25 1.26 1.27 1.26 1.27 1.26 1.29 1.28 1.3 1.3 1.31 1.31 1.34 1.33 1.35 1.34 1.37 1.36 1.39 1.38 1.41 1.4 1.42 1.42 1.44 1.43 1.47 1.46 1.49 1.48 1.53 1.52 1.55 1.54 1.58 1.57 1.6 1.59 1.63 1.62 1.67 1.67 1.81 1.73 2.2 2.17 2.29 2.28 2.4 2.37 2.53 2.51 2.67 2.63 2.8 2.77 2.97 2.93 3.29 3.22 3.77 3.77 3.78 3.78 3.79 3.79 3.8 3.79 3.8 3.8 3.81 3.81 3.82 3.82 3.82 3.82 51.99 41.92 51.98 51.99 81.91 81.91 25.41 27.16 17.37 18.89 13.37 14.01 6.6 6.63 6.52 2.19717 -0.83912 -0.0377018 2.19717 -0.83912 -0.0377018 1.01893e+09 pippo 1.01893e+09
ODOM 2.19717 -0.83912 -0.0377018 0 0 0 0 pippo 0
NEFF 24.1734
ODOM 2.28868 -0.850606 -0.209776 0 0 0 1.01893e+09 pippo 1.01893e+09
ODOM 2.32104 -0.859367 -0.283523 0 0 0 1.01893e+09 pippo 1.01893e+09
ODOM 2.41444 -0.893797 -0.418724 0 0 0 1.01893e+09 pippo 1.01893e+09
ODOM 2.46544 -0.918852 -0.49247 0 0 0 1.01893e+09 pippo 1.01893e+09
ODOM 2.50845 -0.944216 -0.590799 0 0 0 1.01893e+09 pippo 1.01893e+09
FLASER 361 3.7 3.7 3.68 3.67 3.65 3.64 3.62 3.62 3.59 3.58 3.58 3.57 3.55 3.55 3.53 3.52 3.56 3.58 3.58 3.57 3.56 3.56 3.55 3.55 3.54 3.54 3.53 3.53 3.52 3.52 3.5 3.51 3.49 3.49 3.5 3.49 3.49 3.49 3.48 3.47 3.47 3.47 3.46 3.46 3.46 3.46 3.46 3.45 3.46 3.45 3.46 3.45 3.46 3.45 3.46 3.46 3.39 3.39 3.4 3.39 3.4 3.4 3.41 3.41 3.14 2.75 2.38 2.36 2.35 2.36 2.37 2.37 2.38 2.38 2.39 2.41 2.77 2.73 2.59 2.54 2.38 1.82 1.76 1.76 1.76 1.76 1.77 1.77 1.78 1.78 1.8 1.79 1.76 1.75 1.69 1.67 1.63 1.61 1.57 1.55 1.51 1.49 1.46 1.44 1.4 1.39 1.37 1.37 1.33 1.32 1.28 1.28 1.25 1.24 1.22 1.21 1.19 1.17 1.16 1.15 1.13 1.12 1.1 1.1 1.09 1.07 1.05 1.05 1.04 1.02 1.01 1 0.99 0.98 0.99 0.97 81.91 81.91 0.88 0.88 0.89 0.89 0.89 0.89 0.89 0.89 0.89 0.88 0.88 0.87 0.87 0.85 0.84 0.85 0.83 0.83 0.82 0.81 0.82 0.81 0.8 0.81 0.8 0.79 0.79 0.8 0.77 0.78 0.76 0.76 0.76 0.75 0.75 0.74 0.74 0.74 0.74 0.73 0.73 0.72 0.73 0.72 0.72 0.71 0.72 0.71 0.71 0.71 0.7 0.7 0.7 0.7 0.7 0.7 0.7 0.7 0.69 0.68 0.7 0.7 0.7 0.7 0.72 0.71 8.51 8.52 8.48 8.47 8.48 8.5 8.79 8.83 9.15 9.19 9.31 9.31 9.31 9.31 9.3 9.29 9.28 9.27 9.26 9.25 9.24 9.24 9.21 9.19 9.2 9.2 9.22 9.21 9.22 9.22 9.23 9.23 9.24 9.24 9.26 9.26 9.26 9.25 8.94 8.85 8.44 8.41 7.99 7.97 7.98 7.97 8.44 8.44 8.47 8.47 8.49 8.5 8.53 8.52 8.55 8.56 8.6 8.6 8.64 8.64 8.68 8.69 8.74 8.74 8.78 8.78 8.83 8.83 8.89 8.89 8.62 8.61 8.63 6.71 6.68 6.64 6.48 6.62 6.72 6.87 6.69 6.62 6.92 6.88 6.7 6.67 6.49 6.46 6.3 6.27 6.12 6.09 5.95 5.93 5.79 5.77 5.64 5.62 5.51 5.49 5.39 5.36 5.26 5.24 1.63 1.57 1.55 1.55 1.65 1.65 1.91 1.93 2.32 2.35 2.94 3.04 1.07 1.07 1.07 1.07 1.06 1.06 1.04 1.04 1.07 1.05 1.08 1.08 1.08 1.09 1.07 1.08 1.09 1.09 1.08 1.08 1.04 1.05 1.01 1.01 1.02 1.03 1.04 1.04 1.05 1.06 1.06 1.08 1.09 1.08 1.11 1.09 1.12 1.12 1.12 1.14 1.15 2.45579 -0.987917 -0.584552 2.45579 -0.987917 -0.584552 1.01893e+09 pippo 1.01893e+09
ODOM 2.45579 -0.987917 -0.584552 0 0 0 0 pippo 0
NEFF 23.461
ODOM 2.49305 -1.01528 -0.701317 0 0 0 1.01893e+09 pippo 1.01893e+09
ODOM 2.52232 -1.043 -0.818082 0 0 0 1.01893e+09 pippo 1.01893e+09
ODOM 2.54246 -1.06812 -0.934847 0 0 0 1.01893e+09 pippo 1.01893e+09
ODOM 2.55748 -1.09047 -1.03932 0 0 0 1.01893e+09 pippo 1.01893e+09
ODOM 2.57394 -1.12277 -1.18681 0 0 0 1.01893e+09 pippo 1.01893e+09
FLASER 361 5.82 5.77 5.66 5.65 5.54 5.52 5.42 5.41 5.32 5.32 5.37 5.35 5.33 5.33 5.52 5.53 5.59 5.59 5.59 5.58 5.62 5.67 6.13 6.14 6.23 6.25 6.34 6.36 6.46 6.48 6.58 6.59 4.22 4.2 4.14 4.12 4.06 4.05 3.99 3.97 3.93 3.92 3.87 3.86 3.47 3.45 3.39 3.38 3.31 3.31 3.36 3.37 3.42 3.42 3.53 3.63 3.73 3.72 3.69 3.69 3.66 3.65 3.62 3.61 3.59 3.59 3.57 3.56 3.54 3.53 3.51 3.5 3.49 3.48 3.46 3.46 3.43 3.44 3.5 3.5 3.48 3.48 3.47 3.47 3.46 3.45 3.44 3.44 3.43 3.43 3.42 3.42 3.41 3.41 3.4 3.4 3.39 3.38 3.38 3.37 3.36 3.36 3.36 3.35 3.35 3.35 3.35 3.34 3.34 3.34 3.34 3.33 3.33 3.33 3.33 3.33 3.34 3.33 3.27 3.26 3.26 3.26 3.26 3.26 3.27 3.27 2.65 2.5 2.23 2.22 2.22 2.22 2.22 2.22 2.23 2.23 2.24 2.24 2.69 2.67 2.5 2.47 1.68 1.66 1.61 1.6 1.61 1.61 1.62 1.62 1.63 1.63 1.64 1.63 1.61 1.6 1.53 1.52 1.47 1.46 1.39 1.4 1.34 1.33 1.29 1.29 1.24 1.23 1.21 1.2 1.18 1.18 1.14 1.13 1.09 1.09 1.07 1.07 1.04 1.04 1.01 1.01 0.98 0.98 0.96 0.95 0.94 0.94 0.92 0.92 0.9 0.88 0.88 0.86 0.85 0.85 0.83 0.83 0.82 0.82 0.81 0.81 0.78 0.78 81.91 81.91 0.73 0.71 0.71 0.72 0.72 0.72 0.72 0.72 0.71 0.7 0.71 0.71 0.7 0.7 0.69 0.69 0.67 0.68 0.67 0.65 0.66 0.66 0.65 0.64 0.64 0.63 0.63 0.62 0.63 0.62 0.62 0.62 0.63 0.62 0.62 0.62 0.6 0.6 0.61 0.61 0.6 0.6 0.6 0.6 0.59 0.59 0.59 0.59 0.58 0.58 0.59 0.57 0.57 0.58 0.58 0.58 0.58 0.58 0.57 0.57 0.57 0.56 0.57 0.57 0.57 0.57 0.56 0.55 0.57 0.55 0.56 0.56 0.56 0.56 0.56 0.56 0.56 0.55 0.58 0.57 0.57 0.57 0.58 0.57 9.12 9.13 9.11 9.11 9.11 9.09 9.09 9.09 9.1 9.1 9.1 9.1 9.11 9.11 9.12 9.12 9.15 9.15 9.15 9.15 9.02 8.94 8.52 8.47 8.2 8.01 7.93 7.93 7.91 7.97 8.37 8.37 8.39 8.41 8.44 8.43 8.47 8.47 8.51 8.51 8.54 8.54 8.59 8.59 8.64 8.65 8.69 8.69 8.75 8.75 8.8 8.81 8.75 8.7 8.54 8.55 8.62 6.7 8.71 8.7 6.77 6.52 6.63 6.76 6.66 6.6 6.85 6.82 6.64 6.62 6.44 2.56792 -1.15244 -1.17431 2.56792 -1.15244 -1.17431 1.01893e+09 pippo 1.01893e+09
ODOM 2.56792 -1.15244 -1.17431 0 0 0 0 pippo 0
NEFF 23.0893
ODOM 2.57751 -1.17994 -1.29108 0 0 0 1.01893e+09 pippo 1.01893e+09
ODOM 2.58545 -1.21354 -1.38941 0 0 0 1.01893e+09 pippo 1.01893e+09
ODOM 2.59259 -1.26822 -1.4693 0 0 0 1.01893e+09 pippo 1.01893e+09
ODOM 2.59583 -1.41227 -1.62294 0 0 0 1.01893e+09 pippo 1.01893e+09
ODOM 2.59481 -1.42936 -1.63523 0 0 0 1.01893e+09 pippo 1.01893e+09
ODOM 2.59515 -1.43535 -1.64137 0 0 0 1.01893e+09 pippo 1.01893e+09
ODOM 2.5951 -1.43435 -1.63523 0 0 0 1.01893e+09 pippo 1.01893e+09
ODOM 2.5951 -1.43435 -1.63523 0 0 0 1.01893e+09 pippo 1.01893e+09
ODOM 2.5951 -1.43435 -1.63523 0 0 0 1.01893e+09 pippo 1.01893e+09
ODOM 2.5951 -1.43435 -1.63523 0 0 0 1.01893e+09 pippo 1.01893e+09
ODOM 2.5951 -1.43435 -1.63523 0 0 0 1.01893e+09 pippo 1.01893e+09
ODOM 2.5951 -1.43435 -1.63523 0 0 0 1.01893e+09 pippo 1.01893e+09
ODOM 2.5951 -1.43435 -1.63523 0 0 0 1.01893e+09 pippo 1.01893e+09
ODOM 2.5951 -1.43435 -1.63523 0 0 0 1.01893e+09 pippo 1.01893e+09
ODOM 2.5951 -1.43435 -1.63523 0 0 0 1.01893e+09 pippo 1.01893e+09
ODOM 2.5951 -1.43435 -1.63523 0 0 0 1.01893e+09 pippo 1.01893e+09
ODOM 2.5951 -1.43435 -1.63523 0 0 0 1.01893e+09 pippo 1.01893e+09
ODOM 2.5951 -1.43435 -1.63523 0 0 0 1.01893e+09 pippo 1.01893e+09
ODOM 2.5951 -1.43435 -1.63523 0 0 0 1.01893e+09 pippo 1.01893e+09
ODOM 2.5951 -1.43435 -1.63523 0 0 0 1.01893e+09 pippo 1.01893e+09
ODOM 2.5951 -1.43435 -1.63523 0 0 0 1.01893e+09 pippo 1.01893e+09
ODOM 2.5951 -1.43435 -1.63523 0 0 0 1.01893e+09 pippo 1.01893e+09
ODOM 2.5951 -1.43435 -1.64137 0 0 0 1.01893e+09 pippo 1.01893e+09
ODOM 2.5951 -1.43435 -1.64137 0 0 0 1.01893e+09 pippo 1.01893e+09
ODOM 2.5951 -1.43435 -1.64137 0 0 0 1.01893e+09 pippo 1.01893e+09
ODOM 2.59492 -1.43135 -1.65366 0 0 0 1.01893e+09 pippo 1.01893e+09
ODOM 2.59564 -1.4263 -1.68439 0 0 0 1.01893e+09 pippo 1.01893e+09
FLASER 361 13.73 13.73 13.74 13.74 13.74 13.75 13.75 13.76 13.77 13.78 13.78 13.79 13.81 13.82 13.84 13.86 13.88 13.89 13.9 13.92 13.94 13.96 13.99 14.01 14.04 13.97 13.1 12.62 12.09 11.89 11.43 11.1 10.71 10.44 10.08 9.83 9.52 9.33 9.04 8.85 8.62 8.45 8.21 8.07 7.86 7.73 7.54 7.41 7.24 7.13 6.96 6.76 6.73 6.64 6.5 6.41 6.28 6.2 6.09 5.96 5.62 5.56 5.49 5.44 5.35 5.31 5.24 5.2 5.23 5.23 5.16 5.18 5.25 5.34 5.37 5.41 5.42 5.44 5.4 5.41 5.54 5.89 5.95 5.98 6.05 6.08 6.15 6.18 6.23 6.28 4.04 4.01 3.96 3.92 3.88 3.85 3.8 3.77 3.71 3.7 3.61 3.33 3.24 3.21 3.18 3.15 3.11 3.12 3.15 3.17 3.2 3.21 3.25 3.39 3.51 3.5 3.47 3.45 3.43 3.42 3.4 3.39 3.37 3.35 3.34 3.32 3.31 3.3 3.28 3.27 3.25 3.24 3.23 3.22 3.21 3.2 3.18 3.18 3.23 3.24 3.23 3.22 3.2 3.2 3.2 3.19 3.18 3.17 3.16 3.15 3.15 3.15 3.14 3.14 3.13 3.12 3.12 3.11 3.1 3.1 3.09 3.09 3.08 3.08 3.07 3.07 3.06 3.06 3.06 3.06 3.05 3.05 3.05 3.05 3.05 3.05 3.05 3.05 3.05 3.04 3.05 3.04 2.98 2.97 2.97 2.98 2.98 2.98 2.99 2.98 2.97 2.17 1.94 1.93 1.92 1.92 1.93 1.93 1.93 1.94 1.94 1.94 1.95 2.03 2.39 2.31 2.21 2.14 2.06 1.84 1.59 1.43 1.37 1.34 1.34 1.34 1.34 1.35 1.35 1.36 1.36 1.35 1.36 1.35 1.32 1.31 1.28 1.26 1.22 1.21 1.18 1.16 1.13 1.12 1.1 1.08 1.07 1.05 1.03 1.02 1 0.99 0.98 0.97 0.95 0.93 0.94 0.92 0.9 0.89 0.87 0.85 0.84 0.83 0.83 0.82 0.81 0.8 0.79 0.79 0.79 0.78 0.77 0.76 0.74 0.75 0.74 0.73 0.72 0.71 0.71 0.7 0.69 0.69 0.68 0.67 0.66 0.66 0.66 0.66 0.65 0.65 0.64 0.64 0.64 0.63 0.63 0.63 0.62 0.62 0.61 0.61 0.6 0.61 0.6 0.59 0.59 0.59 0.59 0.59 0.58 0.59 0.58 0.57 0.57 0.56 0.56 0.54 81.91 81.91 81.91 0.58 0.51 0.53 0.54 0.53 0.54 0.54 0.53 0.53 0.52 0.52 0.52 0.52 0.52 0.52 0.52 0.52 0.52 0.52 0.53 0.52 0.51 0.51 0.51 0.51 0.51 0.51 0.51 0.51 0.52 0.52 0.51 0.51 0.52 0.52 0.51 0.52 0.51 0.52 0.51 0.51 0.51 0.52 0.51 0.51 0.5 0.51 0.51 0.51 0.51 2.55131 -1.44024 -1.72814 2.55131 -1.44024 -1.72814 1.01893e+09 pippo 1.01893e+09
ODOM 2.55131 -1.44024 -1.72814 0 0 0 0 pippo 0
NEFF 22.4647
ODOM 2.55223 -1.43423 -1.78345 0 0 0 1.01893e+09 pippo 1.01893e+09
ODOM 2.55414 -1.4272 -1.88793 0 0 0 1.01893e+09 pippo 1.01893e+09
ODOM 2.55414 -1.4272 -2.02313 0 0 0 1.01893e+09 pippo 1.01893e+09
ODOM 2.55022 -1.43326 -2.20749 0 0 0 1.01893e+09 pippo 1.01893e+09
ODOM 2.54233 -1.44137 -2.42259 0 0 0 1.01893e+09 pippo 1.01893e+09
