ODOM 0 0 0 0 0 0 156.315 pippo 156.315
ODOM 7.62179e-05 -0.00246191 0.061583 0 0 0 156.536 pippo 156.536
ODOM 0.00154146 -0.00575689 0.148201 0 0 0 156.755 pippo 156.755
ODOM 0.00817144 -0.00733163 0.214723 0 0 0 156.975 pippo 156.975
ODOM 0.024032 -0.00619873 0.281631 0 0 0 157.205 pippo 157.205
ODOM 0.0579368 0.0015494 0.34489 0 0 0 157.744 pippo 157.744
ODOM 0.0633067 0.00214995 0.372773 0 0 0 157.855 pippo 157.855
ODOM 0.0642201 2.88689e-06 0.431117 0 0 0 157.975 pippo 157.975
ODOM 0.0653011 -0.00217142 0.491843 0 0 0 158.198 pippo 158.198
ODOM 0.0665697 -0.00436953 0.555288 0 0 0 158.415 pippo 158.415
FLASER 360 1.16 1.18 1.18 1.19 1.19 1.2 1.21 1.22 1.23 1.24 1.25 1.26 1.26 1.27 1.28 1.3 1.3 1.31 1.32 1.33 1.33 1.35 1.36 1.38 1.38 1.4 1.4 1.42 1.42 1.45 1.45 1.49 1.49 1.52 1.53 1.54 1.55 1.58 1.58 1.61 1.61 1.65 1.66 1.69 1.7 1.73 1.74 1.77 1.79 1.83 1.83 1.87 1.89 1.93 1.94 1.98 2 2.05 2.07 2.12 2.15 2.2 2.22 2.29 2.3 2.35 2.37 2.44 2.46 2.54 2.57 2.64 2.66 2.74 2.78 2.87 2.89 2.99 3.03 3.15 3.18 3.31 3.34 3.42 3.43 3.45 3.46 3.5 3.5 3.55 3.56 3.61 3.62 3.66 3.67 3.71 3.72 3.79 3.81 3.86 3.88 3.93 3.94 4.01 4.02 4.08 4.1 4.17 4.19 4.25 4.25 4.26 4.26 4.27 4.27 4.27 4.27 4.28 4.28 4.29 4.29 4.3 4.29 4.3 4.3 4.32 4.33 4.34 4.34 4.36 4.36 4.37 4.38 4.4 4.4 4.41 4.42 4.43 4.44 4.46 4.47 4.38 4.36 4.4 4.39 5.18 5.2 5.22 5.22 5.24 5.25 3.29 3.24 3.14 3.14 3.15 3.15 3.17 3.17 3.18 3.18 3.22 3.22 3.24 3.25 3.27 3.27 3.29 3.29 3.33 3.33 3.37 3.38 3.38 3.37 3.29 3.27 3.2 3.18 3.12 3.09 3.04 3.02 2.96 2.95 2.87 2.86 2.83 2.81 2.77 2.74 2.7 2.67 2.65 2.63 2.59 2.58 2.55 2.54 2.47 2.46 2.44 2.43 2.4 2.39 2.35 2.35 2.31 2.3 2.29 2.28 2.25 2.24 2.21 2.21 2.18 2.17 2.15 2.15 2.12 2.12 2.1 2.09 2.08 2.05 2.04 2.04 2.02 2.02 2.01 2 1.98 1.97 1.96 1.95 1.95 1.94 1.93 1.92 1.91 1.9 1.89 1.89 1.88 1.87 1.87 1.87 1.86 1.85 1.83 1.82 1.82 1.82 1.81 1.81 1.81 1.81 1.79 1.79 1.78 1.78 1.76 1.76 1.76 1.76 1.75 1.74 1.75 1.75 1.74 1.74 1.74 1.74 1.73 1.72 1.72 1.72 1.71 1.71 1.71 1.71 1.71 1.71 1.71 1.71 1.71 1.71 1.71 1.71 1.71 1.71 1.7 1.69 1.71 1.7 1.71 1.7 1.71 1.7 1.71 1.71 1.71 1.71 1.71 1.71 1.71 1.71 1.71 1.71 1.72 1.71 1.72 1.72 1.72 1.72 1.72 1.72 1.73 1.73 1.74 1.74 1.74 1.75 1.75 1.76 1.77 1.77 1.77 1.77 1.75 1.75 1.76 1.76 1.65 1.6 1.57 1.54 1.51 1.5 1.45 1.42 1.43 1.4 1.33 1.33 1.32 1.29 1.25 1.23 1.24 1.22 1.16 1.14 1.12 1.12 1.1 1.08 1.08 1.08 1.08 0.108623 -0.0344101 0.552197 0.108623 -0.0344101 0.552197 158.415 pippo 158.415
ODOM 0.108623 -0.0344101 0.552197 0 0 0 0 pippo 0
NEFF 30
ODOM 0.110584 -0.0373017 0.63957 0 0 0 158.644 pippo 158.644
ODOM 0.112605 -0.039371 0.711674 0 0 0 158.865 pippo 158.865
ODOM 0.114763 -0.0409916 0.777864 0 0 0 159.086 pippo 159.086
ODOM 0.117128 -0.0420381 0.83833 0 0 0 159.316 pippo 159.316
ODOM 0.119537 -0.0434978 0.907673 0 0 0 159.545 pippo 159.545
ODOM 0.122513 -0.0452006 0.992425 0 0 0 159.766 pippo 159.766
ODOM 0.125062 -0.0461785 1.05955 0 0 0 159.985 pippo 159.985
FLASER 360 2 2.06 2.08 2.13 2.15 2.21 2.23 2.29 2.3 2.37 2.38 2.46 2.47 2.55 2.57 2.65 2.67 2.76 2.78 2.87 2.9 3 3.04 3.14 3.17 3.3 3.35 3.42 3.42 3.45 3.46 3.5 3.51 3.55 3.57 3.61 3.62 3.66 3.68 3.72 3.74 3.8 3.81 3.87 3.88 3.93 3.95 4.01 4.03 4.09 4.11 4.17 4.19 4.25 4.26 4.26 4.26 4.26 4.27 4.27 4.27 4.28 4.28 4.29 4.29 4.31 4.31 4.32 4.31 4.32 4.33 4.34 4.34 4.36 4.36 4.37 4.37 4.39 4.4 4.42 4.42 4.43 4.44 4.46 4.47 4.36 4.36 4.41 4.46 5.2 5.21 5.23 5.24 5.25 5.26 3.25 3.23 3.15 3.14 3.16 3.16 3.17 3.17 3.18 3.19 3.22 3.22 3.25 3.25 3.27 3.27 3.29 3.3 3.34 3.35 3.37 3.38 3.37 3.36 3.27 3.27 3.19 3.17 3.11 3.08 3.03 3.02 2.95 2.94 2.87 2.86 2.82 2.81 2.76 2.74 2.69 2.68 2.64 2.63 2.59 2.58 2.54 2.53 2.47 2.46 2.44 2.42 2.41 2.39 2.36 2.35 2.32 2.29 2.29 2.28 2.25 2.23 2.21 2.2 2.19 2.18 2.16 2.15 2.13 2.12 2.1 2.1 2.06 2.06 2.04 2.03 2.03 2.02 2 1.99 1.98 1.97 1.96 1.96 1.94 1.92 1.92 1.93 1.91 1.9 1.89 1.89 1.88 1.88 1.87 1.86 1.85 1.85 1.83 1.83 1.82 1.83 1.82 1.82 1.8 1.8 1.79 1.79 1.78 1.78 1.78 1.78 1.77 1.76 1.74 1.74 1.75 1.75 1.73 1.73 1.73 1.73 1.72 1.72 1.72 1.72 1.72 1.72 1.72 1.72 1.71 1.72 1.71 1.71 1.71 1.71 1.71 1.71 1.71 1.71 1.7 1.7 1.71 1.71 1.71 1.71 1.71 1.71 1.71 1.72 1.72 1.71 1.72 1.72 1.72 1.72 1.72 1.72 1.72 1.73 1.74 1.73 1.74 1.74 1.75 1.74 1.75 1.76 1.76 1.77 1.78 1.78 1.78 1.78 1.78 1.78 1.78 1.78 1.76 1.76 1.77 1.75 1.63 1.62 1.55 1.54 1.51 1.51 1.44 1.43 1.42 1.4 1.33 1.33 1.32 1.3 1.25 1.23 1.25 1.23 1.17 1.16 1.14 1.13 1.1 1.08 1.1 1.1 1.1 1.11 1.12 1.13 1.13 1.13 1.14 1.15 1.15 1.16 1.18 1.18 1.19 1.19 1.2 1.21 1.23 1.22 1.25 1.25 1.26 1.26 1.28 1.3 1.31 1.32 1.32 1.33 1.35 1.36 1.38 1.38 1.4 1.41 1.43 1.44 1.47 1.47 1.5 1.51 1.53 1.53 1.56 1.57 1.6 1.6 1.64 1.65 1.68 1.69 1.72 1.73 1.78 1.78 1.83 1.89 3.55 0.131308 -0.0148892 1.03455 0.131308 -0.0148892 1.03455 159.985 pippo 159.985
ODOM 0.131308 -0.0148892 1.03455 0 0 0 0 pippo 0
NEFF 29.7924
ODOM 0.133389 -0.016044 1.09407 0 0 0 160.104 pippo 160.104
ODOM 0.135499 -0.016526 1.1465 0 0 0 160.324 pippo 160.324
ODOM 0.135629 -0.0165847 1.15007 0 0 0 160.556 pippo 160.556
ODOM 0.135629 -0.0165847 1.15007 0 0 0 160.775 pippo 160.775
ODOM 0.135629 -0.0165847 1.15007 0 0 0 160.996 pippo 160.996
ODOM 0.135629 -0.0165847 1.15007 0 0 0 161.215 pippo 161.215
ODOM 0.135259 -0.0158826 1.13446 0 0 0 161.444 pippo 161.444
ODOM 0.133197 -0.0148469 1.07675 0 0 0 161.667 pippo 161.667
ODOM 0.130985 -0.0135633 1.01283 0 0 0 161.886 pippo 161.886
ODOM 0.128932 -0.0121927 0.951085 0 0 0 162.106 pippo 162.106
ODOM 0.127308 -0.00989441 0.883355 0 0 0 162.326 pippo 162.326
ODOM 0.131578 0.000742524 0.792232 0 0 0 162.453 pippo 162.453
ODOM 0.149926 0.0223357 0.722945 0 0 0 162.675 pippo 162.675
FLASER 360 1.53 1.54 1.55 1.56 1.59 1.59 1.63 1.63 1.67 1.68 1.7 1.71 1.75 1.75 1.79 1.8 1.84 1.85 1.89 1.91 1.95 1.97 2.01 2.03 2.08 2.1 2.15 2.18 2.23 2.27 2.3 2.33 2.38 2.4 2.46 2.5 2.57 2.58 2.66 2.69 2.77 2.8 2.89 2.92 3.02 3.06 3.17 3.2 3.34 3.39 3.41 3.41 3.45 3.46 3.51 3.51 3.56 3.57 3.62 3.62 3.67 3.68 3.72 3.74 3.8 3.82 3.87 3.89 3.94 3.96 4.02 4.04 4.1 4.12 4.18 4.2 4.25 4.25 4.26 4.26 4.26 4.25 4.26 4.26 4.27 4.27 4.28 4.29 4.3 4.3 4.31 4.32 4.31 4.32 4.33 4.34 4.35 4.36 4.37 4.37 4.38 4.39 4.41 4.41 4.43 4.44 4.46 4.46 4.36 4.35 4.4 4.51 5.19 5.18 5.22 5.23 5.25 3.31 3.23 3.2 3.13 3.13 3.14 3.14 3.16 3.17 3.17 3.18 3.21 3.21 3.23 3.24 3.26 3.27 3.28 3.29 3.32 3.33 3.35 3.36 3.35 3.35 3.27 3.24 3.18 3.15 3.09 3.08 3.02 3 2.94 2.92 2.85 2.84 2.8 2.78 2.74 2.74 2.68 2.66 2.63 2.62 2.58 2.57 2.53 2.51 2.45 2.44 2.43 2.42 2.39 2.38 2.35 2.34 2.31 2.28 2.27 2.26 2.24 2.24 2.2 2.19 2.17 2.16 2.14 2.13 2.11 2.1 2.1 2.08 2.06 2.04 2.03 2.02 2.01 2 1.98 1.97 1.97 1.96 1.95 1.95 1.93 1.92 1.9 1.91 1.9 1.89 1.88 1.88 1.87 1.86 1.85 1.85 1.84 1.83 1.83 1.82 1.8 1.8 1.8 1.8 1.79 1.78 1.78 1.78 1.78 1.77 1.76 1.76 1.76 1.75 1.74 1.73 1.73 1.73 1.73 1.73 1.72 1.72 1.72 1.72 1.71 1.71 1.72 1.72 1.71 1.71 1.71 1.71 1.71 1.71 1.71 1.7 1.7 1.7 1.7 1.7 1.69 1.69 1.7 1.7 1.7 1.7 1.71 1.7 1.7 1.7 1.71 1.71 1.71 1.71 1.72 1.72 1.72 1.72 1.71 1.72 1.72 1.72 1.72 1.72 1.73 1.73 1.72 1.73 1.74 1.74 1.75 1.75 1.76 1.76 1.77 1.77 1.78 1.78 1.77 1.76 1.76 1.76 1.73 1.67 1.6 1.6 1.52 1.52 1.51 1.47 1.42 1.42 1.36 1.35 1.33 1.32 1.27 1.27 1.24 1.24 1.2 1.18 1.15 1.16 1.13 1.11 1.08 1.09 1.09 1.09 1.1 1.1 1.11 1.12 1.13 1.13 1.14 1.14 1.16 1.16 1.17 1.17 1.18 1.18 1.2 1.2 1.22 1.22 1.25 1.25 1.26 1.27 1.29 1.29 1.31 1.31 1.33 1.33 1.35 1.35 1.37 1.38 0.130481 -0.00860249 0.829929 0.130481 -0.00860249 0.829929 162.675 pippo 162.675
ODOM 0.130481 -0.00860249 0.829929 0 0 0 0 pippo 0
NEFF 29.7946
ODOM 0.174088 0.0410704 0.765031 0 0 0 162.895 pippo 162.895
ODOM 0.228581 0.0951859 0.701826 0 0 0 163.115 pippo 163.115
ODOM 0.303831 0.160344 0.621038 0 0 0 163.344 pippo 163.344
ODOM 0.379342 0.216666 0.546842 0 0 0 163.567 pippo 163.567
ODOM 0.444403 0.257285 0.50245 0 0 0 163.785 pippo 163.785
ODOM 0.514887 0.296778 0.467248 0 0 0 164.007 pippo 164.007
ODOM 0.592813 0.336531 0.439889 0 0 0 164.245 pippo 164.245
ODOM 0.681413 0.37904 0.413858 0 0 0 164.466 pippo 164.466
ODOM 0.749991 0.409538 0.398289 0 0 0 164.584 pippo 164.584
ODOM 0.822718 0.440347 0.386072 0 0 0 164.805 pippo 164.805
ODOM 0.892705 0.468942 0.378593 0 0 0 165.025 pippo 165.025
ODOM 0.93851 0.486696 0.389659 0 0 0 165.256 pippo 165.256
ODOM 0.943743 0.489408 0.375131 0 0 0 165.476 pippo 165.476
ODOM 0.946107 0.490339 0.375085 0 0 0 165.695 pippo 165.695
ODOM 0.946296 0.490414 0.375085 0 0 0 165.915 pippo 165.915
ODOM 0.946296 0.490414 0.375085 0 0 0 166.136 pippo 166.136
ODOM 0.946898 0.490727 0.373287 0 0 0 166.355 pippo 166.355
ODOM 0.947669 0.492068 0.349 0 0 0 166.575 pippo 166.575
FLASER 360 1.6 1.6 1.6 1.61 1.61 1.62 1.63 1.63 1.64 1.65 1.66 1.66 1.67 1.67 1.68 1.69 1.7 1.71 1.72 1.72 1.73 1.74 1.75 1.76 1.78 1.78 1.79 1.8 1.82 1.83 1.83 1.85 1.86 1.89 1.9 1.91 1.92 1.93 1.94 1.95 1.96 1.97 1.99 2 2.02 2.04 2.05 2.07 2.09 2.1 2.12 2.14 2.16 2.17 2.19 2.21 2.23 2.25 2.28 2.3 2.32 2.34 2.37 2.4 2.42 2.44 2.49 2.51 2.55 2.57 2.61 2.63 2.67 2.7 2.73 2.76 2.8 2.85 2.82 2.83 2.85 2.86 2.88 2.89 2.88 2.89 2.91 2.92 2.94 2.94 2.96 2.98 3 3.01 3.02 3.04 3.06 3.08 3.09 3.11 3.13 3.15 3.16 3.18 3.21 3.23 3.25 3.27 3.29 3.31 3.34 3.36 3.38 3.41 3.43 3.45 3.45 3.45 3.44 3.45 3.45 3.45 3.45 3.45 3.45 3.44 3.45 3.45 3.44 3.45 3.45 3.45 3.45 3.45 3.45 3.44 3.44 3.45 3.45 3.46 3.46 3.46 3.46 3.47 3.47 3.48 3.49 3.49 3.49 3.49 3.5 3.51 3.52 3.53 3.54 3.44 3.41 3.42 3.5 3.74 4.22 4.23 4.23 4.24 2.4 2.28 2.22 2.18 2.17 2.18 2.18 2.19 2.19 2.2 2.2 2.21 2.21 2.22 2.23 2.24 2.24 2.25 2.26 2.27 2.28 2.29 2.29 2.3 2.3 2.32 2.34 2.35 2.37 2.38 2.39 2.4 2.39 2.38 2.33 2.29 2.26 2.24 2.21 2.19 2.15 2.11 2.09 2.07 2.05 2.02 1.99 1.98 1.95 1.93 1.9 1.88 1.86 1.85 1.84 1.8 1.79 1.78 1.76 1.74 1.72 1.71 1.69 1.68 1.66 1.66 1.64 1.63 1.62 1.61 1.59 1.58 1.57 1.56 1.55 1.54 1.53 1.52 1.51 1.5 1.48 1.48 1.47 1.46 1.45 1.44 1.43 1.42 1.41 1.4 1.41 1.4 1.39 1.38 1.38 1.37 1.37 1.35 1.34 1.34 1.35 1.35 1.33 1.32 1.32 1.31 1.32 1.31 1.31 1.3 1.29 1.29 1.29 1.29 1.28 1.27 1.27 1.27 1.26 1.26 1.24 1.25 1.25 1.25 1.25 1.25 1.24 1.25 1.24 1.24 1.24 1.24 1.23 1.23 1.23 1.22 1.21 1.21 1.21 1.22 1.21 1.21 1.21 1.21 1.22 1.2 1.21 1.21 1.21 1.21 1.2 1.21 1.21 1.21 1.21 1.2 1.2 1.21 1.2 1.21 1.22 1.2 1.21 1.21 1.22 1.21 1.21 1.21 1.21 1.23 1.22 1.22 1.21 1.22 1.22 1.22 1.24 1.23 1.23 1.23 1.22 1.23 1.24 1.24 1.25 1.25 1.25 1.25 1.25 1.26 1.27 1.27 1.28 1.28 1.28 1.29 0.955266 0.450943 0.33821 0.955266 0.450943 0.33821 166.575 pippo 166.575
ODOM 0.955266 0.450943 0.33821 0 0 0 0 pippo 0
NEFF 29.7666
ODOM 0.956225 0.453759 0.279095 0 0 0 166.796 pippo 166.796
ODOM 0.961187 0.457675 0.214427 0 0 0 167.017 pippo 167.017
ODOM 0.995499 0.467077 0.140513 0 0 0 167.245 pippo 167.245
ODOM 1.09154 0.482237 0.0582042 0 0 0 167.364 pippo 167.364
ODOM 1.16761 0.487311 0.0228862 0 0 0 167.585 pippo 167.585
ODOM 1.24452 0.489595 -0.0040048 0 0 0 167.806 pippo 167.806
ODOM 1.32458 0.489723 -0.0273428 0 0 0 168.027 pippo 168.027
ODOM 1.43804 0.487052 -0.0537118 0 0 0 168.256 pippo 168.256
ODOM 1.5179 0.482963 -0.0670068 0 0 0 168.476 pippo 168.476
ODOM 1.59415 0.478003 -0.0743878 0 0 0 168.696 pippo 168.696
ODOM 1.67075 0.472471 -0.0814738 0 0 0 168.915 pippo 168.915
ODOM 1.75948 0.465313 -0.0890438 0 0 0 169.136 pippo 169.136
ODOM 1.86753 0.45575 -0.0948438 0 0 0 169.356 pippo 169.356
ODOM 1.94395 0.448545 -0.0977738 0 0 0 169.576 pippo 169.576
ODOM 2.02383 0.440806 -0.102041 0 0 0 169.795 pippo 169.795
FLASER 360 1.49 1.49 1.48 1.5 1.49 1.49 1.49 1.49 1.49 1.49 1.49 1.49 1.5 1.49 1.49 1.49 1.49 1.49 1.5 1.49 1.49 1.5 1.5 1.52 81.91 1.49 1.5 1.5 1.5 1.5 1.51 1.51 1.5 1.5 1.5 1.52 1.51 1.51 1.51 1.52 1.52 1.52 1.53 1.53 1.53 1.54 1.54 1.54 1.55 1.55 1.56 1.56 1.57 1.57 1.58 1.58 1.58 1.58 1.59 1.6 1.6 1.61 1.62 1.63 1.64 1.65 1.66 1.66 1.67 1.68 1.69 1.7 1.71 1.71 1.72 1.73 1.73 1.75 1.75 1.77 1.78 1.78 1.79 1.81 1.82 1.83 1.84 1.85 1.86 1.88 1.89 1.9 1.92 1.93 1.94 1.96 1.97 1.99 1.99 6.9 2 2 2.01 2.01 2.01 2.02 2.02 2.02 2.03 2.03 2.04 2.04 2.05 2.05 2.05 2.05 2.06 2.06 2.08 2.08 2.09 2.09 2.1 2.1 2.11 2.11 2.13 2.13 2.14 2.14 2.16 2.17 2.17 2.17 2.19 2.2 2.21 2.22 2.23 2.24 2.24 2.25 2.27 2.28 2.3 2.3 2.32 2.33 2.34 2.35 2.37 2.38 2.4 2.41 2.43 2.43 2.45 2.46 2.47 2.46 2.46 2.45 2.45 2.44 2.44 2.45 2.45 2.45 2.45 2.45 2.45 2.44 2.44 2.43 2.44 2.43 2.43 2.43 2.43 2.43 2.44 2.43 2.44 2.44 2.44 2.44 2.45 2.45 2.45 2.44 2.45 2.45 2.45 2.45 2.45 2.44 2.46 2.45 2.46 2.46 2.47 2.47 2.49 2.49 2.51 2.51 2.52 2.52 2.52 2.53 2.52 2.54 2.55 2.54 2.43 2.41 2.42 2.43 2.5 2.85 3.22 3.21 3.24 3.24 3.26 3.26 3.28 3.29 3.31 3.31 3.33 3.33 3.35 3.35 1.41 1.4 1.36 1.34 1.32 1.32 1.29 1.28 1.24 1.23 1.25 1.24 1.26 1.27 1.27 1.28 1.29 1.29 1.3 1.3 1.31 1.31 1.34 1.32 1.34 1.34 1.36 1.35 1.37 1.37 1.39 1.39 1.41 1.42 1.43 1.44 1.45 1.46 1.47 1.47 1.5 1.51 1.52 1.53 1.54 1.56 1.57 1.58 1.61 1.6 1.59 1.59 1.58 1.57 1.56 1.54 1.53 1.53 1.52 1.51 1.49 1.49 1.48 1.47 1.45 1.45 1.45 1.44 1.43 1.42 1.41 1.4 1.4 1.38 1.39 1.38 1.37 1.36 1.35 1.35 1.34 1.34 1.34 1.34 1.33 1.32 1.31 1.31 1.31 1.3 1.3 1.29 1.28 1.28 1.27 1.27 1.26 1.26 1.26 1.24 1.25 1.25 1.25 1.25 1.25 1.25 1.24 1.24 1.24 1.23 1.23 1.23 1.22 1.22 1.22 1.21 1.21 1.21 1.21 1.21 1.21 1.19 1.2 1.19 1.2 1.2 1.94569 0.422613 -0.13154 1.94569 0.422613 -0.13154 169.795 pippo 169.795
ODOM 1.94569 0.422613 -0.13154 0 0 0 0 pippo 0
NEFF 29.6803
ODOM 2.02187 0.412487 -0.130207 0 0 0 170.018 pippo 170.018
ODOM 2.12652 0.398695 -0.130188 0 0 0 170.146 pippo 170.146
ODOM 2.21025 0.387725 -0.130006 0 0 0 170.365 pippo 170.365
ODOM 2.28646 0.377762 -0.130006 0 0 0 170.585 pippo 170.585
ODOM 2.36305 0.367706 -0.128974 0 0 0 170.805 pippo 170.805
ODOM 2.43889 0.357869 -0.128472 0 0 0 171.025 pippo 171.025
ODOM 2.55515 0.34285 -0.128472 0 0 0 171.255 pippo 171.255
ODOM 2.63021 0.33319 -0.130006 0 0 0 171.475 pippo 171.475
ODOM 2.69911 0.324162 -0.129527 0 0 0 171.695 pippo 171.695
ODOM 2.76045 0.316143 -0.127994 0 0 0 171.916 pippo 171.916
ODOM 2.81646 0.308967 -0.128472 0 0 0 172.145 pippo 172.145
ODOM 2.87931 0.300841 -0.128272 0 0 0 172.367 pippo 172.367
ODOM 2.91185 0.296609 -0.126938 0 0 0 172.485 pippo 172.485
ODOM 2.93804 0.29332 -0.128258 0 0 0 172.705 pippo 172.705
FLASER 360 1.38 1.38 1.39 1.38 1.38 1.38 1.38 1.38 1.38 1.37 1.37 1.38 1.38 1.38 1.37 1.38 1.38 1.38 1.38 1.38 1.38 1.38 1.38 1.39 1.39 1.39 1.39 1.39 1.39 1.39 1.39 1.39 1.39 1.39 1.39 1.39 1.4 1.42 6.84 1.41 1.38 1.38 1.37 1.36 1.36 1.36 1.35 1.34 1.34 1.34 1.34 1.33 1.33 1.33 1.32 1.32 1.32 1.31 1.31 1.3 1.31 1.31 1.31 1.31 1.31 1.31 1.31 1.3 1.3 1.3 1.3 1.3 1.29 1.29 1.29 1.29 1.29 1.29 1.29 1.28 1.28 1.29 1.28 1.29 1.28 1.28 1.29 1.29 1.29 1.29 1.29 1.29 1.29 1.29 1.3 1.29 1.3 1.3 1.31 1.31 1.31 1.31 1.31 1.31 1.31 1.31 1.32 1.32 1.33 1.33 1.33 1.33 1.34 1.35 1.34 1.35 1.35 1.36 1.36 1.37 1.37 1.37 1.37 1.38 1.39 1.39 1.39 1.39 1.4 1.4 1.41 1.41 1.42 1.42 1.43 1.44 1.45 1.45 1.45 1.47 1.45 1.45 1.45 1.44 1.43 1.43 1.43 1.43 1.43 1.42 1.42 1.41 1.41 1.41 1.41 1.4 1.4 1.4 1.4 1.4 1.4 1.4 1.39 1.39 1.4 1.4 1.39 1.39 1.39 1.39 1.39 1.39 1.39 1.39 1.39 1.39 1.39 1.38 1.39 1.39 1.38 1.38 1.39 1.39 1.38 1.39 1.39 1.39 1.4 1.4 1.4 1.39 1.4 1.4 1.4 1.4 1.4 1.4 1.4 1.41 1.41 1.41 1.42 1.42 1.42 1.43 1.43 1.43 1.44 1.44 1.45 1.45 1.46 1.46 1.45 1.45 1.47 1.47 1.47 1.49 1.48 1.49 1.49 1.49 1.5 1.5 1.51 1.52 1.54 1.54 1.55 1.56 1.56 1.55 1.51 1.48 1.46 1.44 1.45 1.45 1.48 1.5 1.58 2.31 2.35 2.35 2.37 2.38 2.39 2.4 2.42 2.43 2.45 2.45 14.16 14.07 14.05 14.13 14.01 14 81.91 81.91 81.91 81.91 13.27 13.22 13.13 13.04 13.07 81.91 19.68 19.63 2.1 2.07 2.08 12.11 12.01 11.95 12.02 10.32 10.26 10.25 10.27 10.35 81.91 81.91 81.91 81.91 20.43 20.46 8.9 8.86 8.82 8.78 8.75 8.7 8.67 8.63 8.6 8.57 8.54 8.51 8.47 8.45 8.42 8.38 8.36 8.33 8.3 8.28 8.25 8.23 8.2 8.18 8.15 8.14 0.88 0.87 0.87 0.87 0.84 0.8 0.78 0.78 0.75 0.72 0.67 0.67 0.66 0.66 0.66 0.65 0.65 0.65 0.66 0.65 0.65 0.65 0.64 0.64 0.64 0.65 0.63 0.63 0.62 0.62 0.62 0.62 0.62 0.63 0.62 0.62 0.62 0.61 0.61 0.61 0.62 0.61 0.61 0.61 2.98584 0.288907 -0.0875035 2.98584 0.288907 -0.0875035 172.705 pippo 172.705
ODOM 2.98584 0.288907 -0.0875035 0 0 0 0 pippo 0
NEFF 28.9003
ODOM 3.00291 0.287471 -0.0890285 0 0 0 172.927 pippo 172.927
ODOM 3.00589 0.287214 -0.0892515 0 0 0 173.156 pippo 173.156
ODOM 3.00589 0.287214 -0.0892515 0 0 0 173.376 pippo 173.376
ODOM 3.00614 0.286818 -0.0799335 0 0 0 173.595 pippo 173.595
ODOM 3.00624 0.285163 -0.0389175 0 0 0 173.816 pippo 173.816
ODOM 3.00625 0.282019 0.0397255 0 0 0 174.045 pippo 174.045
ODOM 3.00718 0.278926 0.118566 0 0 0 174.266 pippo 174.266
ODOM 3.00756 0.276419 0.181982 0 0 0 174.486 pippo 174.486
ODOM 3.00809 0.273963 0.244802 0 0 0 174.706 pippo 174.706
ODOM 3.00881 0.271438 0.310448 0 0 0 174.926 pippo 174.926
ODOM 3.0101 0.267969 0.40306 0 0 0 175.044 pippo 175.044
ODOM 3.01339 0.266666 0.467423 0 0 0 175.266 pippo 175.266
FLASER 360 1.29 1.28 1.29 1.28 1.28 1.28 1.28 1.28 1.28 1.27 1.27 1.27 1.26 1.27 1.27 1.27 1.27 1.27 1.26 1.26 1.26 1.26 1.26 1.26 1.26 1.26 1.27 1.27 1.26 1.27 1.27 1.26 1.26 1.26 1.27 1.27 1.26 1.27 1.27 1.27 1.27 1.27 1.26 1.27 1.27 1.27 1.28 1.28 1.28 1.29 1.29 1.3 1.3 1.3 1.3 1.31 1.31 1.31 1.31 1.32 1.32 1.33 1.33 1.33 1.33 1.35 1.35 1.35 1.36 1.37 1.37 1.38 1.38 1.39 1.39 1.4 1.4 1.41 1.42 1.42 1.42 1.44 1.42 1.42 1.42 1.41 1.41 1.41 1.4 1.4 1.39 1.39 1.39 1.38 1.38 1.38 1.37 1.37 1.37 1.36 1.36 1.36 1.36 1.36 1.35 1.36 1.36 1.35 1.35 1.35 1.35 1.36 1.36 1.35 1.35 1.36 1.36 1.35 1.35 1.36 1.35 1.36 1.36 1.36 1.35 1.35 1.36 1.36 1.36 1.35 1.35 1.35 1.35 1.35 1.36 1.36 1.36 1.36 1.35 1.36 1.36 1.37 1.37 1.37 1.37 1.38 1.38 1.39 1.39 1.39 1.39 1.4 1.4 1.42 1.42 1.42 1.42 1.43 1.43 1.44 1.44 1.44 1.44 1.45 1.45 1.46 1.46 1.47 1.48 1.49 1.49 1.5 1.5 1.51 1.52 1.53 1.53 1.53 1.53 1.48 1.46 1.42 1.42 1.42 1.43 1.45 1.46 2.25 2.3 2.33 2.32 2.34 2.35 2.37 2.38 2.4 2.4 2.43 14.07 14.04 14.09 13.99 13.97 81.91 81.91 81.91 81.91 13.24 13.23 13.11 13.06 13.06 81.91 15.95 19.67 19.6 81.91 2.07 2.05 2.04 2.08 11.99 10.35 10.24 10.24 10.24 10.26 81.91 81.91 81.91 81.91 20.43 20.44 8.89 8.86 8.82 8.81 8.75 8.73 8.67 8.66 8.61 8.59 8.54 8.53 8.47 8.46 8.42 8.41 8.36 8.35 8.32 8.29 8.26 8.24 8.21 8.19 8.15 8.15 8.12 8.11 8.07 8.07 8.07 8.06 0.86 0.87 0.85 0.84 0.8 0.8 0.78 0.78 0.76 0.74 0.66 0.66 0.66 0.67 0.67 0.66 0.67 0.67 0.67 0.67 0.66 0.66 0.66 0.66 0.66 0.66 0.64 0.63 0.64 0.64 0.64 0.64 0.63 0.63 0.63 0.62 0.63 0.63 0.63 0.63 0.63 0.63 0.63 0.63 0.74 0.78 1.25 1.25 1.25 1.26 1.26 1.25 1.26 1.25 1.26 1.26 1.26 1.26 1.26 1.26 1.26 1.26 1.26 1.26 1.26 1.26 1.27 1.27 1.27 1.27 1.27 1.27 1.28 1.28 1.29 1.29 1.3 1.29 1.31 1.32 1.31 1.31 1.32 1.32 1.34 1.33 1.35 1.34 1.35 1.36 1.37 1.37 1.38 1.39 1.39 3.01688 0.291977 0.411173 3.01688 0.291977 0.411173 175.266 pippo 175.266
ODOM 3.01688 0.291977 0.411173 0 0 0 0 pippo 0
NEFF 28.9441
ODOM 3.03868 0.299031 0.481651 0 0 0 175.486 pippo 175.486
ODOM 3.06892 0.312612 0.544434 0 0 0 175.707 pippo 175.707
ODOM 3.10257 0.330657 0.610422 0 0 0 175.927 pippo 175.927
ODOM 3.15339 0.36307 0.704214 0 0 0 176.156 pippo 176.156
ODOM 3.18899 0.390975 0.766977 0 0 0 176.377 pippo 176.377
ODOM 3.22885 0.427094 0.831489 0 0 0 176.597 pippo 176.597
ODOM 3.26024 0.459485 0.876142 0 0 0 176.816 pippo 176.816
ODOM 3.26752 0.468222 0.876142 0 0 0 177.045 pippo 177.045
ODOM 3.26752 0.468222 0.876142 0 0 0 177.267 pippo 177.267
ODOM 3.26752 0.468222 0.876142 0 0 0 177.486 pippo 177.486
ODOM 3.26737 0.46884 0.863232 0 0 0 177.635 pippo 177.635
ODOM 3.26782 0.469239 0.865404 0 0 0 177.856 pippo 177.856
ODOM 3.26765 0.469386 0.859745 0 0 0 178.086 pippo 178.086
ODOM 3.26619 0.470708 0.810492 0 0 0 178.247 pippo 178.247
FLASER 360 1.32 1.32 1.31 1.31 1.29 1.29 1.28 1.27 1.27 1.26 1.25 1.25 1.25 1.25 1.24 1.24 1.23 1.24 1.23 1.23 1.22 1.21 1.2 1.21 1.2 1.2 1.19 1.19 1.18 1.18 1.19 1.18 1.18 1.18 1.18 1.17 1.17 1.17 1.16 1.16 1.16 1.15 1.15 1.15 1.14 1.14 1.14 1.14 1.14 1.13 1.14 1.13 1.13 1.13 1.13 1.13 1.13 1.13 1.13 1.13 1.13 1.13 1.13 1.13 1.13 1.13 1.13 1.13 1.13 1.13 1.13 1.13 1.14 1.14 1.14 1.14 1.14 1.14 1.15 1.15 1.15 1.15 1.16 1.16 1.16 1.16 1.16 1.17 1.17 1.18 1.18 1.18 1.18 1.18 1.18 1.18 1.19 1.19 1.2 1.2 1.21 1.2 1.22 1.21 1.22 1.22 1.24 1.24 1.25 1.25 1.21 1.18 1.15 1.14 1.12 1.12 1.13 1.15 1.16 1.17 1.33 1.97 1.99 2.01 2.01 2.01 2.03 2.04 2.06 2.06 2.07 2.07 2.09 2.1 2.11 2.11 81.91 13.94 13.78 13.7 13.77 13.77 13.67 13.68 81.91 81.91 81.91 81.91 12.94 12.88 12.78 12.71 12.72 81.91 15.64 19.39 19.32 81.91 1.77 1.74 1.74 1.75 11.66 10.02 9.94 9.9 9.92 9.94 12.7 81.91 81.91 81.91 20.08 20.12 81.91 8.57 8.53 8.5 8.46 8.43 8.39 8.37 8.33 8.3 8.26 8.24 8.2 8.18 8.14 8.12 8.08 8.06 8.04 8.02 7.99 7.96 7.94 7.92 7.9 7.89 7.86 7.85 7.82 7.81 7.8 7.78 7.77 7.76 7.74 7.73 7.71 7.71 7.69 7.68 7.67 7.67 7.66 7.64 7.62 7.62 7.61 7.61 7.6 7.6 7.59 7.59 7.58 7.59 7.58 7.58 0.6 0.59 0.57 0.58 0.57 0.58 0.67 0.8 1.32 1.3 1.37 0.71 0.54 0.53 0.52 0.53 0.52 0.51 0.52 0.52 0.52 0.51 0.51 0.52 0.51 0.51 0.52 0.52 0.51 0.48 0.42 0.42 0.41 0.41 0.42 0.42 0.42 0.42 0.42 0.41 0.42 0.42 0.42 0.42 0.42 0.42 0.42 0.42 0.43 0.44 0.44 0.44 0.45 0.45 0.42 0.42 0.42 0.43 0.43 0.43 0.44 0.44 0.44 0.44 0.43 0.44 0.45 0.45 0.45 0.45 0.45 0.45 0.45 0.46 0.46 0.45 0.48 0.48 1.13 1.16 1.2 1.21 1.2 1.23 1.22 1.23 1.23 1.24 1.25 1.25 1.27 1.27 1.28 1.3 1.3 1.3 1.32 1.32 1.33 1.33 1.34 1.35 1.36 1.37 1.39 1.4 1.42 1.42 1.44 1.45 1.45 1.47 1.48 1.49 1.53 1.54 1.53 1.54 1.56 1.58 1.6 1.61 1.63 1.65 1.68 1.69 1.72 1.73 1.75 1.77 3.25755 0.503905 0.924555 3.25755 0.503905 0.924555 178.247 pippo 178.247
ODOM 3.25755 0.503905 0.924555 0 0 0 0 pippo 0
NEFF 28.7161
ODOM 3.25606 0.505086 0.877004 0 0 0 178.506 pippo 178.506
ODOM 3.2546 0.506364 0.828433 0 0 0 178.744 pippo 178.744
ODOM 3.25332 0.50759 0.784149 0 0 0 179.106 pippo 179.106
ODOM 3.25713 0.512447 0.765249 0 0 0 179.317 pippo 179.317
ODOM 3.29876 0.552953 0.741514 0 0 0 179.545 pippo 179.545
ODOM 3.35647 0.606125 0.730913 0 0 0 179.777 pippo 179.777
ODOM 3.47586 0.712141 0.741381 0 0 0 180.196 pippo 180.196
ODOM 3.54013 0.770005 0.766597 0 0 0 180.471 pippo 180.471
ODOM 3.6044 0.830101 0.802332 0 0 0 180.598 pippo 180.598
ODOM 3.66031 0.88566 0.842685 0 0 0 180.812 pippo 180.812
ODOM 3.7126 0.942655 0.888404 0 0 0 181.026 pippo 181.026
ODOM 3.78763 1.03259 0.980475 0 0 0 181.256 pippo 181.256
ODOM 3.83182 1.09625 1.04321 0 0 0 181.475 pippo 181.475
FLASER 360 0.75 0.74 0.74 0.73 0.73 0.73 0.73 0.72 0.72 0.72 0.72 0.72 0.72 0.71 0.72 0.71 0.71 0.7 0.71 0.7 0.7 0.7 0.7 0.7 0.69 0.69 0.69 0.68 0.68 0.68 0.68 0.68 0.68 0.67 0.68 0.67 0.68 0.53 0.58 0.51 0.53 0.51 0.51 0.51 0.51 0.49 0.5 0.51 0.51 0.52 0.52 0.53 0.53 0.52 0.53 0.55 0.53 0.96 0.94 0.87 0.97 0.64 0.65 0.65 0.65 0.81 0.74 1.24 1.24 1.25 1.25 1.25 1.26 1.26 1.25 1.26 1.26 1.26 1.25 1.26 1.27 1.26 1.26 1.26 1.26 1.27 1.28 1.27 1.27 1.28 1.28 1.28 1.29 1.29 1.3 1.28 1.29 1.31 1.3 1.32 1.32 1.31 1.32 1.32 1.33 1.33 1.33 1.33 1.34 1.35 1.36 1.33 1.34 1.36 1.37 1.37 1.38 1.38 1.38 13.12 13.11 13.18 13.23 15.55 15.57 81.91 81.91 81.91 81.91 81.91 81.91 81.91 81.91 13.05 13.01 12.96 13.01 12.93 12.91 81.91 81.91 81.91 81.91 12.14 12.16 12.12 12.08 11.92 11.95 81.91 18.71 81.91 81.91 0.99 0.99 0.99 0.99 0.98 0.96 10.94 9.27 9.17 9.17 9.16 9.16 9.25 12 81.91 81.91 19.34 19.33 81.91 81.91 7.79 7.78 7.76 7.74 7.68 7.67 7.61 7.6 7.56 7.55 7.5 7.5 7.45 7.44 7.4 7.39 7.35 7.35 7.31 7.3 7.28 7.27 7.23 7.22 7.2 7.2 7.17 7.17 7.14 7.13 7.11 7.11 7.08 7.08 7.07 7.07 7.04 7.05 7.01 7.02 7 7.02 6.98 6.99 6.98 6.98 6.97 6.97 6.96 6.96 6.96 6.96 6.95 6.96 6.95 6.96 6.96 6.97 6.96 6.97 6.97 6.98 6.98 6.98 6.98 6.99 6.99 7 7.01 7.02 7.01 7.03 7.04 7.05 7.06 7.07 7.08 7.09 7.1 7.11 7.14 7.15 7.17 7.18 7.21 7.22 7.24 7.26 7.27 7.29 7.32 7.33 7.36 7.37 7.4 7.42 7.45 7.47 7.51 7.53 7.57 7.58 7.61 7.64 7.71 7.73 7.76 7.78 7.83 7.86 7.91 7.93 7.98 8 8.06 8.08 1.12 1.1 1.08 1.07 1.05 1.04 1.02 1.02 1 1.01 1.01 0.93 0.86 0.88 0.84 0.85 9 9.02 9.12 9.16 9.26 9.31 9.41 9.46 9.56 9.6 9.73 9.77 9.89 9.93 10.07 10.11 10.27 10.32 10.34 10.35 10.68 10.74 10.91 10.96 9.72 9.76 11.38 11.45 11.63 11.72 11.92 11.99 12.22 12.3 12.54 12.59 12.71 12.94 0.89 0.88 0.87 0.86 0.86 0.85 0.85 0.84 0.84 0.83 0.81 0.82 0.81 0.81 0.81 0.8 0.79 3.80995 1.0414 0.952586 3.80995 1.0414 0.952586 181.475 pippo 181.475
ODOM 3.80995 1.0414 0.952586 0 0 0 0 pippo 0
NEFF 13.7881
ODOM 3.86422 1.11348 1.02621 0 0 0 181.668 pippo 181.668
ODOM 3.90808 1.18315 1.09352 0 0 0 181.874 pippo 181.874
ODOM 3.9422 1.24623 1.15233 0 0 0 182.107 pippo 182.107
ODOM 3.97592 1.31889 1.21695 0 0 0 182.327 pippo 182.327
ODOM 4.01629 1.42488 1.29253 0 0 0 182.558 pippo 182.558
ODOM 4.03619 1.49147 1.32665 0 0 0 182.797 pippo 182.797
ODOM 4.05511 1.56553 1.34788 0 0 0 183.016 pippo 183.016
ODOM 4.07506 1.65263 1.36545 0 0 0 183.24 pippo 183.24
ODOM 4.09748 1.75875 1.38045 0 0 0 183.457 pippo 183.457
ODOM 4.11285 1.83755 1.391 0 0 0 183.676 pippo 183.676
ODOM 4.12629 1.91003 1.40097 0 0 0 183.795 pippo 183.795
ODOM 4.13947 1.98472 1.41673 0 0 0 184.016 pippo 184.016
FLASER 360 3.12 3.9 5.13 5.17 6.04 9.42 11.53 12.85 11.28 11.25 11.25 11.21 11.19 11.18 11.17 11.63 81.91 81.91 81.91 81.91 21.73 21.73 21.8 21.87 21.93 21.96 12.82 20.49 22.25 22.3 22.36 22.46 22.53 81.91 81.91 81.91 19.64 19.69 81.91 81.91 81.91 15.07 15.04 13.7 81.91 16.79 16.84 16.96 17.01 81.91 81.91 81.91 12.56 12.48 12.48 12.55 81.91 81.91 81.91 14.88 81.91 81.91 81.91 81.91 81.91 81.91 81.91 12.37 12.32 12.19 12.23 12.28 12.19 12.15 81.91 81.91 81.91 81.91 11.38 11.37 11.34 11.2 11.13 11.15 81.91 81.91 81.91 13.98 17.76 17.72 10.49 10.14 10.06 9.98 8.39 8.31 8.27 8.25 8.27 8.31 8.36 10.94 11.08 18.63 18.64 81.91 81.91 81.91 6.85 6.82 6.8 6.76 6.73 6.69 6.67 6.64 6.61 6.58 6.56 6.52 6.51 6.47 6.45 6.42 6.4 6.38 6.37 6.33 6.32 6.3 6.29 6.27 6.26 6.23 6.23 6.19 6.18 6.17 6.16 6.14 6.14 6.12 6.11 6.09 6.08 6.06 6.06 6.05 6.04 6.03 6.02 6.01 6.01 5.99 5.99 5.98 5.98 5.97 5.96 5.97 5.97 5.96 5.96 5.95 5.95 5.95 5.95 5.95 5.95 5.95 5.95 5.95 5.96 5.94 5.96 5.96 5.96 5.95 5.97 5.96 5.98 5.97 5.98 5.99 6.01 6.01 6.03 6.02 6.03 6.03 6.05 6.06 6.08 6.08 6.1 6.11 6.13 6.14 6.16 6.17 6.19 6.2 6.21 6.23 6.25 6.26 6.29 6.3 6.32 6.34 6.36 6.38 6.41 6.43 6.46 6.48 6.5 6.53 6.55 6.58 6.61 6.63 6.67 6.69 6.72 6.76 6.78 6.84 6.86 6.89 6.93 6.97 7 7.04 7.09 7.13 7.17 7.21 7.26 7.31 7.36 7.4 7.45 7.5 7.55 7.6 7.66 7.72 7.78 7.84 7.9 7.96 8.02 8.06 8.14 8.2 8.27 8.34 8.41 8.49 8.56 8.64 8.73 8.8 8.87 8.98 9.07 9.16 9.25 9.35 9.46 9.56 9.67 9.78 9.69 9.7 10.12 10.26 10.38 10.51 9.21 9.19 10.95 11.1 11.24 11.41 11.56 11.75 11.91 12.11 12.01 12.11 12.67 12.91 13.12 11.61 11.56 13.86 14.1 14.4 14.66 14.98 15.26 15.62 15.91 16.17 81.91 20.16 20.09 20.04 19.78 19.66 19.42 19.77 20.38 21.03 20.13 22.43 21.78 22.8 20 25.65 22.73 27.7 28.73 30.12 81.91 81.91 34.35 36.68 81.91 81.91 81.91 81.91 81.91 81.91 81.91 81.91 81.91 81.91 81.91 81.91 81.91 81.91 38.86 38.87 38.87 38.84 22.19 24.32 24.33 23.08 22.07 23.7 23.8 23.5 23.47 81.91 0.7 0.7 4.09343 2.01831 1.46673 4.09343 2.01831 1.46673 184.016 pippo 184.016
ODOM 4.09343 2.01831 1.46673 0 0 0 0 pippo 0
NEFF 29.0355
ODOM 4.1055 2.127 1.50867 0 0 0 184.245 pippo 184.245
ODOM 4.1101 2.19014 1.52524 0 0 0 184.468 pippo 184.468
ODOM 4.11048 2.2004 1.52322 0 0 0 184.687 pippo 184.687
ODOM 4.11049 2.2006 1.52322 0 0 0 184.907 pippo 184.907
ODOM 4.11049 2.2006 1.52322 0 0 0 185.144 pippo 185.144
ODOM 4.11055 2.20059 1.52461 0 0 0 185.368 pippo 185.368
ODOM 4.11149 2.20063 1.54826 0 0 0 185.587 pippo 185.587
ODOM 4.11394 2.20106 1.60912 0 0 0 185.808 pippo 185.808
ODOM 4.11717 2.20172 1.69088 0 0 0 185.947 pippo 185.947
ODOM 4.11987 2.20261 1.76093 0 0 0 186.166 pippo 186.166
ODOM 4.12233 2.20328 1.82438 0 0 0 186.386 pippo 186.386
ODOM 4.12293 2.20535 1.85254 0 0 0 186.608 pippo 186.608
ODOM 4.1102 2.23965 1.78569 0 0 0 187.027 pippo 187.027
ODOM 4.09763 2.28572 1.69691 0 0 0 187.247 pippo 187.247
FLASER 360 81.91 81.91 15.09 15.02 15.05 13.63 81.91 16.69 16.79 16.85 16.94 81.91 81.91 81.91 12.4 12.37 12.42 12.47 81.91 81.91 14.77 14.77 81.91 81.91 81.91 81.91 81.91 81.91 81.91 12.26 12.09 12.04 12.16 12.12 12 12.03 81.91 81.91 81.91 81.91 11.22 11.2 11.09 10.99 11 11.01 81.91 81.91 13.93 13.91 17.59 17.58 9.98 9.91 9.81 9.78 8.1 8.07 8.06 8.06 8.12 8.18 10.69 10.73 18.55 18.5 18.39 18.44 81.91 6.65 6.59 6.58 6.53 6.51 6.46 6.45 6.4 6.38 6.35 6.33 6.29 6.28 6.24 6.22 6.19 6.17 6.14 6.13 6.1 6.08 6.06 6.05 6.02 6.01 5.99 5.98 5.95 5.96 5.94 5.93 5.9 5.89 5.87 5.86 5.85 5.84 5.82 5.81 5.8 5.79 5.77 5.77 5.76 5.75 5.74 5.74 5.72 5.72 5.71 5.7 5.7 5.69 5.69 5.69 5.69 5.69 5.68 5.67 5.67 5.67 5.68 5.67 5.67 5.67 5.67 5.66 5.68 5.68 5.68 5.68 5.68 5.68 5.69 5.69 5.7 5.71 5.71 5.72 5.73 5.73 5.75 5.74 5.75 5.76 5.78 5.78 5.81 5.81 5.83 5.84 5.85 5.87 5.89 5.9 5.9 5.91 5.94 5.95 5.97 5.98 6.01 6.01 6.05 6.06 6.07 6.09 6.12 6.13 6.17 6.17 6.21 6.22 6.26 6.28 6.32 6.33 6.38 6.4 6.42 6.43 6.49 6.5 6.57 6.57 6.62 6.64 6.69 6.71 6.77 6.79 6.84 6.86 6.93 6.95 7.02 7.04 7.12 7.15 7.21 7.24 7.31 7.34 7.41 7.45 7.53 7.56 7.66 7.68 7.78 7.82 7.9 7.94 8.04 8.07 8.19 8.22 8.33 8.39 8.49 8.54 8.65 8.7 8.83 8.88 9.03 9.08 9.24 9.28 9.46 9.51 9.49 9.45 9.91 9.98 10.17 10.24 9.03 9 9.04 10.84 11.07 11.15 11.4 11.49 11.75 11.85 11.82 11.89 12.55 12.67 13 13.12 11.39 11.41 14.04 14.19 14.62 14.79 15.26 15.41 15.93 16.02 20 19.98 19.91 19.82 19.53 19.49 19.44 19.85 20.76 21.1 20.03 22.51 23.06 19.87 25.54 26.04 27.7 28.23 30.14 30.7 33.56 34.07 36.89 81.91 81.91 81.91 81.91 81.91 38.93 81.91 81.91 81.91 81.91 81.91 81.91 81.91 38.77 38.79 38.78 38.8 38.8 23.06 24.26 24.26 23.02 23.03 21.98 23.57 23.51 23.39 81.91 81.91 28.23 28.24 81.91 81.91 81.91 81.91 81.91 35.82 34.26 32.69 21.76 9.12 9.11 9.07 81.91 81.91 5.69 5.67 5.53 5.17 4.58 4.55 4.56 4.56 4.57 4.54 4.12 4.05 3.75 3.65 3.4 3.34 3.15 3.09 2.92 2.87 4.10544 2.2982 1.78129 4.10544 2.2982 1.78129 187.247 pippo 187.247
ODOM 4.10544 2.2982 1.78129 0 0 0 0 pippo 0
NEFF 20.3457
ODOM 4.09155 2.3595 1.74079 0 0 0 187.487 pippo 187.487
ODOM 4.08033 2.42286 1.72753 0 0 0 187.725 pippo 187.725
ODOM 4.0621 2.53447 1.69837 0 0 0 187.853 pippo 187.853
ODOM 4.05237 2.60681 1.67971 0 0 0 188.076 pippo 188.076
ODOM 4.04414 2.67949 1.6658 0 0 0 188.296 pippo 188.296
ODOM 4.03667 2.75589 1.65663 0 0 0 188.516 pippo 188.516
ODOM 4.02771 2.85854 1.64729 0 0 0 188.745 pippo 188.745
ODOM 4.0206 2.9486 1.63983 0 0 0 188.969 pippo 188.969
ODOM 4.01521 3.02511 1.63459 0 0 0 189.187 pippo 189.187
ODOM 4.01005 3.10526 1.63214 0 0 0 189.407 pippo 189.407
ODOM 4.00473 3.1906 1.62937 0 0 0 189.645 pippo 189.645
ODOM 3.99852 3.29467 1.62447 0 0 0 189.867 pippo 189.867
FLASER 360 21.68 21.79 21.84 21.89 21.91 20.39 20.3 22.14 22.14 22.17 22.26 22.31 22.38 81.91 81.91 19.46 19.52 81.91 14.85 13.47 81.91 81.91 16.57 16.52 16.6 16.66 16.75 12.21 12.15 12.15 12.21 81.91 81.91 81.91 81.91 14.5 14.46 81.91 81.91 81.91 81.91 81.91 81.91 11.81 11.68 11.71 11.78 11.64 11.61 13.6 81.91 81.91 81.91 10.76 10.76 10.67 10.49 10.53 81.91 81.91 81.91 81.91 81.91 81.91 9.76 9.39 7.58 7.53 7.5 7.49 7.52 7.56 9.65 9.72 9.87 9.99 10.08 6.01 6.01 5.95 5.93 5.88 5.84 5.8 5.78 5.73 5.71 5.67 5.64 5.6 5.57 5.54 5.51 5.47 5.47 5.42 5.4 5.37 5.36 5.32 5.3 5.28 5.26 5.24 5.23 5.2 5.19 5.16 5.16 5.13 5.12 5.09 5.06 5.04 5.02 5.01 5 4.97 4.96 4.94 4.93 4.92 4.91 4.89 4.89 4.87 4.86 4.85 4.85 4.82 4.83 4.81 4.81 4.79 4.8 4.78 4.78 4.77 4.78 4.76 4.76 4.75 4.74 4.74 4.74 4.73 4.73 4.73 4.74 4.72 4.72 4.72 4.72 4.72 4.73 4.72 4.72 4.71 4.72 4.73 4.73 4.73 4.74 4.74 4.75 4.75 4.75 4.75 4.76 4.76 4.76 4.77 4.77 4.77 4.79 4.78 4.8 4.81 4.82 4.83 4.84 4.84 4.86 4.87 4.88 4.89 4.91 4.92 4.94 4.95 4.96 4.97 4.99 5 5.02 5.04 5.05 5.09 5.11 5.13 5.15 5.14 5.18 5.2 5.22 5.24 5.28 5.27 5.31 5.32 5.36 5.38 5.41 5.43 5.46 5.48 5.51 5.54 5.57 5.59 5.63 5.65 5.7 5.72 5.76 5.79 5.83 5.86 5.91 5.94 5.99 6.02 6.08 6.11 6.17 6.2 6.26 6.3 6.36 6.4 6.46 6.51 6.57 6.62 6.68 6.73 6.8 6.85 6.92 6.98 7.06 7.13 7.21 7.26 7.34 7.41 7.5 7.57 7.67 7.75 7.85 7.92 8.02 8.11 8.22 8.31 8.45 8.54 8.66 8.77 8.82 8.67 9.1 9.28 9.44 9.58 9.73 9.88 8.28 8.28 10.4 10.56 10.77 10.96 11.18 11.33 11.18 11.48 12.07 12.31 12.6 12.87 10.78 13.47 13.81 14.15 14.52 14.87 15.3 81.91 19.42 19.35 19.23 19.01 18.88 18.62 19.55 20.24 21 19.5 21.27 22.19 19.41 25.92 22.14 28.57 30.27 81.91 81.91 81.91 81.91 81.91 81.91 81.91 81.91 38.56 81.91 81.91 81.91 81.91 81.91 81.91 38.54 38.53 38.53 38.53 38.52 38.6 81.91 81.91 21.79 24.01 24.05 81.91 23.48 21.7 23.74 23.42 23.22 81.91 28.11 28.06 44.21 81.91 81.91 81.91 35.72 34.65 32.61 32.64 4.03884 3.27436 1.58697 4.03884 3.27436 1.58697 189.867 pippo 189.867
ODOM 4.03884 3.27436 1.58697 0 0 0 0 pippo 0
NEFF 18.584
ODOM 4.03765 3.34817 1.58697 0 0 0 189.987 pippo 189.987
ODOM 4.03643 3.42404 1.5885 0 0 0 190.205 pippo 190.205
ODOM 4.03495 3.50454 1.58717 0 0 0 190.427 pippo 190.427
ODOM 4.0332 3.61022 1.58622 0 0 0 190.675 pippo 190.675
ODOM 4.03186 3.68638 1.5796 0 0 0 190.897 pippo 190.897
ODOM 4.03203 3.74106 1.5974 0 0 0 191.116 pippo 191.116
ODOM 4.03116 3.75226 1.58202 0 0 0 191.337 pippo 191.337
ODOM 4.03095 3.75541 1.57776 0 0 0 191.557 pippo 191.557
ODOM 4.03095 3.75579 1.57776 0 0 0 191.776 pippo 191.776
ODOM 4.0312 3.75648 1.58414 0 0 0 191.997 pippo 191.997
ODOM 4.03255 3.75758 1.61858 0 0 0 192.116 pippo 192.116
ODOM 4.03577 3.75947 1.70228 0 0 0 192.346 pippo 192.346
ODOM 4.03856 3.76073 1.77547 0 0 0 192.567 pippo 192.567
ODOM 4.04101 3.76131 1.83831 0 0 0 192.791 pippo 192.791
ODOM 4.04256 3.76177 1.87892 0 0 0 193.014 pippo 193.014
ODOM 4.04256 3.76203 1.88072 0 0 0 193.245 pippo 193.245
ODOM 4.04075 3.77353 1.92559 0 0 0 193.616 pippo 193.616
ODOM 4.04208 3.77812 1.99682 0 0 0 193.898 pippo 193.898
ODOM 4.04203 3.78389 2.06002 0 0 0 194.147 pippo 194.147
FLASER 360 10.2 10.33 81.91 81.91 81.91 81.91 81.91 7.35 7.3 7.21 7.19 7.19 7.21 7.31 9.21 9.3 9.36 9.5 5.7 5.61 5.6 5.53 5.51 5.45 5.43 5.37 5.36 5.3 5.28 5.23 5.2 5.16 5.15 5.1 5.09 5.02 5.01 4.96 4.95 4.91 4.91 4.85 4.84 4.82 4.77 4.77 4.76 4.71 4.7 4.67 4.66 4.64 4.63 4.6 4.59 4.57 4.56 4.53 4.52 4.5 4.49 4.47 4.46 4.43 4.43 4.41 4.4 4.38 4.38 4.36 4.35 4.33 4.34 4.32 4.32 4.3 4.29 4.29 4.28 4.27 4.27 4.25 4.25 4.24 4.24 4.23 4.23 4.21 4.21 4.21 4.21 4.21 4.2 4.2 4.2 4.19 4.19 4.19 4.19 4.18 4.18 4.18 4.18 4.18 4.18 4.18 4.18 4.19 4.19 4.19 4.19 4.19 4.19 4.2 4.2 4.21 4.2 4.21 4.21 4.21 4.22 4.22 4.23 4.24 4.24 4.25 4.25 4.27 4.27 4.29 4.29 4.31 4.31 4.33 4.33 4.34 4.35 4.37 4.38 4.4 4.4 4.42 4.43 4.44 4.45 4.48 4.49 4.52 4.51 4.53 4.54 4.58 4.59 4.61 4.62 4.66 4.66 4.69 4.7 4.72 4.74 4.78 4.78 4.82 4.84 4.87 4.88 4.93 4.94 4.97 4.99 5.02 5.03 5.12 5.14 5.18 5.2 5.25 5.27 5.31 5.33 5.38 5.41 5.46 5.48 5.55 5.56 5.63 5.65 5.73 5.75 5.83 5.84 5.92 5.94 6.02 6.06 6.14 6.17 6.26 6.29 6.39 6.42 6.52 6.55 6.66 6.7 6.81 6.85 6.97 7 7.14 7.17 7.3 7.35 7.49 7.54 7.69 7.75 7.9 7.95 8.12 8.18 8.38 8.44 8.27 8.3 8.93 9.02 9.24 9.31 9.57 9.66 7.93 7.92 10.34 10.44 10.76 10.89 10.86 10.85 11.72 11.86 12.29 12.45 10.52 10.5 13.61 13.81 14.4 14.62 15.15 19.14 19.08 19.01 18.75 18.68 18.36 18.48 20.32 20.75 19.34 22.53 24.58 19.2 81.91 21.93 30.32 81.91 81.91 81.91 81.91 81.91 81.91 81.91 38.45 38.42 81.91 81.91 81.91 81.91 38.37 38.36 38.41 38.39 38.42 38.39 81.91 81.91 81.91 81.91 21.72 21.69 23.96 23.99 22.85 81.91 21.6 81.91 23.18 23.15 28.06 28.08 81.91 81.91 37.69 81.91 35.66 34.42 32.6 32.64 29.68 29.69 26.09 21.42 20.45 19.66 17.76 17.76 13.97 13.79 12.98 12.97 12.43 12.16 9.16 9.14 9.16 9.23 9.67 9.48 8.07 8.07 9.52 9.53 9.55 9.39 6.51 6.48 6.2 6.09 5.9 5.9 5.87 5.84 5.64 5.57 5.39 5.33 5.16 5.11 4.94 4.9 4.85 4.86 4.89 4.9 4.83 4.79 4.66 4.00453 3.83545 2.03502 4.00453 3.83545 2.03502 194.147 pippo 194.147
ODOM 4.00453 3.83545 2.03502 0 0 0 0 pippo 0
NEFF 18.2686
ODOM 3.98541 3.8783 2.12362 0 0 0 194.256 pippo 194.256
ODOM 3.94857 3.93921 2.15643 0 0 0 194.476 pippo 194.476
ODOM 3.90612 4.00404 2.18072 0 0 0 194.696 pippo 194.696
ODOM 3.8605 4.07005 2.20066 0 0 0 194.917 pippo 194.917
ODOM 3.80162 4.15113 2.2185 0 0 0 195.146 pippo 195.146
ODOM 3.74734 4.22346 2.23157 0 0 0 195.366 pippo 195.366
ODOM 3.6981 4.287 2.23847 0 0 0 195.587 pippo 195.587
ODOM 3.65071 4.34738 2.24585 0 0 0 195.806 pippo 195.806
ODOM 3.59342 4.41906 2.25234 0 0 0 196.045 pippo 196.045
ODOM 3.53779 4.48788 2.25671 0 0 0 196.187 pippo 196.187
ODOM 3.49052 4.54588 2.26197 0 0 0 196.408 pippo 196.408
ODOM 3.44188 4.60503 2.27181 0 0 0 196.626 pippo 196.626
ODOM 3.36632 4.69489 2.28722 0 0 0 196.857 pippo 196.857
FLASER 360 4.28 4.25 4.24 4.21 4.19 4.16 4.15 4.12 4.1 4.1 4.07 4.04 4.03 4 3.99 3.97 3.96 3.93 3.91 3.9 3.89 3.87 3.86 3.84 3.84 3.82 3.81 3.79 3.76 3.75 3.75 3.73 3.72 3.71 3.7 3.69 3.68 3.67 3.66 3.65 3.65 3.63 3.62 3.62 3.62 3.6 3.6 3.59 3.58 3.57 3.57 3.57 3.57 3.56 3.56 3.55 3.55 3.55 3.55 3.52 3.56 3.56 3.56 3.56 3.56 3.55 3.56 3.55 3.56 3.55 3.56 3.55 3.56 3.56 3.56 3.57 3.56 3.56 3.57 3.57 3.58 3.58 3.58 3.58 3.58 3.58 3.58 3.59 3.6 3.61 3.62 3.62 3.62 3.63 3.63 3.64 3.65 3.65 3.67 3.66 3.68 3.68 3.71 3.7 3.72 3.73 3.74 3.75 3.79 3.81 3.81 3.81 3.83 3.84 3.86 3.86 3.88 3.9 3.92 3.93 3.95 3.97 3.98 4 4.02 4.04 4.06 4.07 4.08 4.13 4.16 4.17 4.19 4.21 4.24 4.26 4.29 4.32 4.34 4.37 4.39 4.43 4.45 4.48 4.51 4.55 4.57 4.6 4.63 4.67 4.71 4.74 4.78 4.81 4.86 4.89 4.93 4.97 5.02 5.09 5.12 5.16 5.22 5.26 5.32 5.37 5.42 5.48 5.53 5.59 5.65 5.72 5.78 5.83 5.9 5.98 6.04 6.12 6.19 6.27 6.35 6.43 6.53 6.63 6.7 6.81 6.89 7.01 7.1 7.22 7.32 7.45 7.44 7.25 7.32 7.98 8.1 8.26 8.41 8.56 8.73 6.98 6.96 6.95 9.47 9.69 9.9 9.98 9.84 9.95 10.88 11.21 11.49 11.83 9.59 9.54 9.54 13.29 13.69 14.13 18.18 18.13 17.96 17.81 17.68 17.52 18.5 19.48 20.27 18.37 21.19 23.95 18.3 18.31 81.91 81.91 81.91 81.91 81.91 81.91 81.91 81.91 54.39 37.63 81.91 81.91 37.63 37.58 37.64 37.59 37.61 37.6 81.91 37.67 81.91 81.91 81.91 81.91 81.91 81.91 22 21.04 23.31 81.91 22.16 81.91 20.97 22.71 22.53 27.38 27.41 81.91 81.91 37.07 81.91 35.05 33.6 32.01 32.05 29.15 29.07 26.09 25.52 21.07 20.76 20 19.01 17.93 17.26 17.22 17.25 14.85 13.53 12.89 12.48 12.46 12.18 11.82 11.47 11.12 10.78 10.46 8.67 8.66 8.74 9.35 9.12 9.03 9.08 9.1 7.65 9.16 9.17 9.01 9.05 9.17 9.43 7.13 7.03 6.18 6.15 6.02 5.89 5.87 5.66 5.6 5.58 5.57 5.58 5.51 5.42 5.34 5.26 5.19 5.11 5.03 4.96 4.91 4.84 4.78 4.73 4.67 4.64 4.68 4.71 4.73 4.7 4.65 4.6 4.56 4.51 4.47 4.42 4.37 4.33 4.3 4.26 4.23 4.19 4.15 3.371 4.60895 2.33879 3.371 4.60895 2.33879 196.857 pippo 196.857
ODOM 3.371 4.60895 2.33879 0 0 0 0 pippo 0
NEFF 14.6517
ODOM 3.31795 4.66407 2.34525 0 0 0 197.076 pippo 197.076
ODOM 3.26443 4.71892 2.35048 0 0 0 197.297 pippo 197.297
ODOM 3.22131 4.76256 2.35138 0 0 0 197.517 pippo 197.517
ODOM 3.21346 4.77055 2.35243 0 0 0 197.738 pippo 197.738
ODOM 3.21319 4.77075 2.35138 0 0 0 197.956 pippo 197.956
ODOM 3.21319 4.77075 2.35138 0 0 0 198.177 pippo 198.177
ODOM 3.21337 4.77092 2.35746 0 0 0 198.397 pippo 198.397
ODOM 3.21403 4.77231 2.39391 0 0 0 198.618 pippo 198.618
ODOM 3.2156 4.77411 2.45346 0 0 0 198.736 pippo 198.736
ODOM 3.21748 4.77744 2.54788 0 0 0 198.957 pippo 198.957
ODOM 3.2185 4.77976 2.61049 0 0 0 199.176 pippo 199.176
ODOM 3.21967 4.78215 2.67675 0 0 0 199.396 pippo 199.396
ODOM 3.21247 4.78839 2.7424 0 0 0 199.616 pippo 199.616
ODOM 3.15425 4.81523 2.8376 0 0 0 199.857 pippo 199.857
FLASER 360 3.42 3.4 3.4 3.4 3.4 3.4 3.4 3.39 3.39 3.39 3.39 3.39 3.39 3.39 3.39 3.39 3.38 3.39 3.39 3.39 3.39 3.39 3.39 3.39 3.38 3.39 3.39 3.4 3.41 3.41 3.41 3.42 3.42 3.42 3.43 3.43 3.42 3.44 3.44 3.44 3.44 3.44 3.45 3.47 3.46 3.48 3.49 3.5 3.5 3.51 3.51 3.53 3.54 3.55 3.56 3.58 3.59 3.6 3.6 3.63 3.63 3.65 3.66 3.68 3.69 3.7 3.72 3.74 3.75 3.79 3.8 3.82 3.84 3.87 3.88 3.9 3.91 3.94 3.95 3.98 3.99 4.04 4.05 4.08 4.09 4.13 4.14 4.18 4.19 4.24 4.25 4.3 4.3 4.36 4.37 4.42 4.43 4.48 4.49 4.55 4.56 4.61 4.64 4.69 4.72 4.78 4.8 4.86 4.87 4.95 4.96 5.04 5.06 5.16 5.18 5.27 5.28 5.39 5.41 5.51 5.53 5.63 5.65 5.76 5.79 5.9 5.94 6.06 6.1 6.23 6.27 6.4 6.43 6.57 6.62 6.78 6.81 6.99 7.04 7.22 7.02 6.96 7.05 7.75 7.79 8 8.07 8.34 8.4 6.65 6.63 6.67 9.14 9.46 9.55 9.54 9.54 9.74 10.54 11 11.12 11.63 11.77 9.21 9.22 13.14 13.33 13.91 17.86 17.73 17.64 17.49 17.49 17.79 18.16 19.55 19.91 18.07 19.87 24.34 18.02 20.79 28.34 81.91 81.91 81.91 81.91 81.91 81.91 54.06 37.34 81.91 81.91 37.33 37.31 37.31 37.31 37.33 37.34 37.38 81.91 37.41 81.91 81.91 81.91 81.91 81.91 37.49 37.48 20.86 20.89 81.91 21.82 22.37 20.8 22.46 22.36 22.24 27.16 81.91 81.91 81.91 81.91 33.85 33.5 31.78 31.8 28.91 28.87 25.86 25.44 21.02 20.73 20.22 19.78 18.22 17.82 17 17.01 15.03 14.9 13.37 13.09 12.37 12.28 12.19 11.99 11.5 11.38 10.88 10.73 10.28 10.17 8.49 8.51 8.56 8.6 8.9 8.89 8.93 8.96 7.52 7.5 8.92 8.85 8.93 9 9.37 9.39 6.98 6.93 6.14 6.09 6.02 6 5.77 5.76 5.7 5.54 5.51 5.48 5.49 5.48 5.37 5.34 5.23 5.2 5.1 5.06 4.96 4.94 4.86 4.84 4.75 4.74 4.66 4.63 4.6 4.62 4.68 4.68 4.65 4.61 4.55 4.53 4.47 4.46 4.4 4.39 4.33 4.31 4.26 4.25 4.18 4.18 4.13 4.12 4.08 4.06 4.02 4.02 3.97 3.95 3.92 3.9 3.86 3.86 3.82 3.82 3.79 3.75 3.72 3.72 3.69 3.68 3.65 3.64 3.61 3.6 3.58 3.57 3.54 3.54 3.51 3.51 3.48 3.48 3.46 3.45 3.43 3.41 3.41 3.4 3.38 3.37 3.36 3.36 3.34 3.32 3.31 3.18237 4.81366 2.8001 3.18237 4.81366 2.8001 199.857 pippo 199.857
ODOM 3.18237 4.81366 2.8001 0 0 0 0 pippo 0
NEFF 26.4951
ODOM 3.10905 4.84107 2.86603 0 0 0 200.077 pippo 200.077
ODOM 3.03515 4.86338 2.92832 0 0 0 200.298 pippo 200.298
ODOM 2.9605 4.88099 2.99146 0 0 0 200.516 pippo 200.516
ODOM 2.851 4.8994 3.08156 0 0 0 200.655 pippo 200.655
ODOM 2.77581 4.90524 -3.14091 0 0 0 200.876 pippo 200.876
ODOM 2.699 4.9061 -3.0937 0 0 0 201.097 pippo 201.097
ODOM 2.61848 4.90295 -3.05583 0 0 0 201.316 pippo 201.316
ODOM 2.5061 4.89387 -3.01801 0 0 0 201.546 pippo 201.546
ODOM 2.42639 4.88427 -3.00081 0 0 0 201.766 pippo 201.766
ODOM 2.35023 4.87376 -2.98754 0 0 0 201.986 pippo 201.986
ODOM 2.27443 4.86219 -2.978 0 0 0 202.21 pippo 202.21
FLASER 360 3.95 3.97 3.98 4.01 4.02 4.04 4.05 4.07 4.09 4.11 4.13 4.15 4.17 4.2 4.21 4.24 4.26 4.29 4.32 4.35 4.36 4.39 4.41 4.45 4.47 4.51 4.53 4.57 4.6 4.64 4.66 4.7 4.73 4.77 4.8 4.84 4.87 4.92 4.95 5 5.03 5.1 5.14 5.19 5.24 5.3 5.34 5.4 5.45 5.51 5.56 5.63 5.68 5.75 5.81 5.88 5.94 6.02 6.09 6.17 6.24 6.33 6.4 6.5 6.31 6.26 6.76 6.87 6.96 7.07 7.16 7.29 7.39 7.53 5.94 5.89 5.94 8.05 8.18 8.33 8.47 8.66 8.79 9 8.74 8.76 9.55 9.79 9.99 10.25 10.49 8.48 8.44 8.44 11.6 11.95 12.25 12.65 12.98 17.09 17.07 17 16.8 16.69 16.66 16.39 16.46 18.11 18.82 17.23 20.69 19.93 23.04 17.16 25.9 27.88 81.91 81.91 81.91 81.91 81.91 81.91 81.91 81.91 36.46 81.91 81.91 81.91 36.46 36.41 36.46 36.48 36.45 36.45 81.91 36.52 81.91 81.91 81.91 81.91 81.91 81.91 36.59 20.11 19.83 22.12 21.59 21.04 19.94 19.81 21.53 21.35 21.36 26.25 81.91 81.91 35.95 33.96 33.05 32.47 30.88 30.91 28.05 27.95 25.07 24.43 24.39 19.83 19.64 19 18.11 17.14 16.44 16.09 16.13 16.15 13.93 13.47 12.3 11.83 11.48 11.39 11.35 10.98 10.76 10.45 10.17 9.89 9.68 9.42 9.21 7.72 7.61 7.63 7.69 7.89 8.07 8.03 8.07 8.1 8.11 8.16 6.66 6.77 8.03 8.08 8.2 8.46 8.54 7.76 6.52 6.19 6.11 6.01 5.93 5.28 5.23 5.22 5.21 5 4.98 4.94 4.94 4.76 4.73 4.72 4.69 4.71 4.72 4.65 4.61 4.56 4.51 4.47 4.42 4.38 4.34 4.3 4.26 4.22 4.2 4.16 4.12 4.09 4.06 4.01 3.99 3.95 3.92 3.93 3.97 4 4.03 4.03 4 3.97 3.95 3.9 3.89 3.85 3.84 3.81 3.8 3.75 3.73 3.71 3.69 3.67 3.66 3.63 3.62 3.6 3.58 3.56 3.55 3.52 3.51 3.49 3.47 3.46 3.45 3.44 3.43 3.41 3.4 3.39 3.37 3.36 3.35 3.34 3.32 3.32 3.31 3.3 3.29 3.27 3.27 3.26 3.24 3.24 3.23 3.22 3.22 3.22 3.21 3.2 3.19 3.18 3.19 3.17 3.17 3.16 3.16 3.15 3.15 3.14 3.14 3.14 3.14 3.13 3.13 3.12 3.12 3.12 3.12 3.12 3.12 3.12 3.12 3.12 3.12 3.12 3.12 3.12 3.11 3.12 3.12 3.12 3.12 3.12 3.12 3.12 3.13 3.14 3.14 3.14 3.14 3.14 3.14 3.15 3.16 3.16 3.17 3.18 3.19 3.19 3.2 3.2 3.21 3.22 2.24787 4.78406 -2.9155 2.24787 4.78406 -2.9155 202.21 pippo 202.21
ODOM 2.24787 4.78406 -2.9155 0 0 0 0 pippo 0
NEFF 23.0519
ODOM 2.16103 4.76421 -2.90627 0 0 0 202.438 pippo 202.438
ODOM 2.05949 4.74007 -2.89799 0 0 0 202.657 pippo 202.657
ODOM 1.9851 4.72166 -2.89262 0 0 0 202.877 pippo 202.877
ODOM 1.90713 4.7019 -2.88956 0 0 0 203.097 pippo 203.097
ODOM 1.83558 4.68355 -2.88672 0 0 0 203.215 pippo 203.215
ODOM 1.72913 4.65593 -2.8812 0 0 0 203.437 pippo 203.437
ODOM 1.64949 4.63474 -2.88056 0 0 0 203.656 pippo 203.656
ODOM 1.57228 4.6141 -2.88209 0 0 0 203.876 pippo 203.876
ODOM 1.49845 4.59445 -2.88312 0 0 0 204.097 pippo 204.097
ODOM 1.40857 4.5707 -2.88362 0 0 0 204.345 pippo 204.345
ODOM 1.31894 4.547 -2.88516 0 0 0 204.566 pippo 204.566
ODOM 1.2446 4.52758 -2.88329 0 0 0 204.787 pippo 204.787
FLASER 360 4.58 4.62 4.63 4.65 4.67 4.71 4.72 4.76 4.77 4.8 4.83 4.86 4.89 4.91 4.94 4.97 5.01 5.04 5.09 5.12 5.15 5.18 5.22 5.26 5.29 5.34 5.37 5.41 5.46 5.5 5.55 5.6 5.65 5.7 5.74 5.8 5.83 5.9 5.95 6.01 5.83 5.8 6.18 6.25 6.32 6.38 6.45 6.53 6.6 5.5 5.57 5.35 5.42 7.01 7.1 7.18 7.28 7.36 7.47 7.57 7.68 7.8 7.91 8.04 8.15 8.28 8.14 8.2 8.17 8.81 8.98 9.14 9.3 9.47 7.83 7.73 7.76 10.25 10.47 10.69 10.91 11.15 11.42 11.68 11.96 12.25 12.43 16.46 16.36 16.32 16.26 15.98 15.93 15.88 15.94 16.34 16.9 17.51 16.45 16.41 18.15 19.12 16.35 16.36 19.23 19.05 26.24 27.42 30.22 31.14 81.91 81.91 81.91 81.91 81.91 81.91 35.57 81.91 81.91 81.91 81.91 81.91 81.91 35.48 35.51 35.51 81.91 35.53 35.5 81.91 81.91 81.91 81.91 81.91 19.85 81.91 81.91 81.91 19.88 19.92 20.6 18.99 20.47 20.37 20.36 81.91 81.91 81.91 81.91 34.97 32.96 32.88 31.51 29.88 29.91 27.02 26.93 24.08 23.41 19.07 18.75 18.6 17.89 17 16.13 15.3 15.08 15.1 15.12 12.91 12.48 11.32 10.92 10.55 10.37 10.37 10.1 9.88 9.6 9.38 9.12 8.89 8.66 8.45 8.26 8.05 6.64 6.59 6.61 6.64 6.7 7.09 7 7.01 7.03 7.07 7.11 7.13 7.17 5.64 5.75 7.02 7.07 7.22 7.51 7.54 7.59 6.51 6.44 5.46 5.19 5.12 5.06 4.99 4.93 4.78 4.29 4.27 4.25 4.22 4.21 4.04 4.02 3.99 3.99 3.99 3.87 3.8 3.78 3.77 3.73 3.73 3.78 3.8 3.73 3.69 3.67 3.64 3.61 3.58 3.54 3.52 3.5 3.48 3.44 3.42 3.4 3.37 3.35 3.33 3.31 3.28 3.26 3.25 3.23 3.21 3.19 3.16 3.16 3.13 3.11 3.09 3.08 3.08 3.13 3.17 3.2 3.21 3.2 3.18 3.17 3.15 3.14 3.12 3.11 3.09 3.08 3.07 3.06 3.04 3.04 3.03 3.01 2.99 2.99 2.97 2.97 2.97 2.96 2.95 2.94 2.93 2.92 2.91 2.91 2.91 2.9 2.89 2.89 2.88 2.87 2.86 2.85 2.85 2.85 2.84 2.84 2.84 2.84 2.84 2.83 2.83 2.82 2.82 2.82 2.82 2.82 2.81 2.82 2.81 2.81 2.81 2.81 2.81 2.81 2.81 2.81 2.8 2.81 2.81 2.81 2.82 2.82 2.82 2.82 2.82 2.83 2.82 2.83 2.84 2.84 2.84 2.84 2.84 2.85 2.85 2.86 2.86 2.86 2.87 2.88 2.89 2.9 2.9 2.91 2.91 2.92 2.92 2.94 2.95 1.24962 4.52284 -2.86141 1.24962 4.52284 -2.86141 204.787 pippo 204.787
ODOM 1.24962 4.52284 -2.86141 0 0 0 0 pippo 0
NEFF 17.6842
ODOM 1.17238 4.50065 -2.85902 0 0 0 205.008 pippo 205.008
ODOM 1.09432 4.47799 -2.86022 0 0 0 205.236 pippo 205.236
ODOM 0.990027 4.4479 -2.85877 0 0 0 205.348 pippo 205.348
ODOM 0.912918 4.42543 -2.86166 0 0 0 205.568 pippo 205.568
ODOM 0.842141 4.4051 -2.86022 0 0 0 205.798 pippo 205.798
ODOM 0.769105 4.38403 -2.85919 0 0 0 206.018 pippo 206.018
ODOM 0.666466 4.35428 -2.85766 0 0 0 206.238 pippo 206.238
ODOM 0.579979 4.32905 -2.85715 0 0 0 206.457 pippo 206.457
ODOM 0.502746 4.30647 -2.85715 0 0 0 206.677 pippo 206.677
ODOM 0.429457 4.28501 -2.85868 0 0 0 206.897 pippo 206.897
ODOM 0.355777 4.26362 -2.85807 0 0 0 207.117 pippo 207.117
ODOM 0.250461 4.2329 -2.85736 0 0 0 207.357 pippo 207.357
FLASER 360 5.23 5.26 5.28 5.32 5.34 5.37 5.39 5.42 5.45 5.48 5.51 5.56 5.58 5.62 5.66 5.68 5.73 5.62 5.54 5.84 5.89 5.93 5.97 6.02 6.05 6.11 5.16 5.14 5.22 6.31 6.36 6.42 6.47 6.53 6.59 6.66 6.72 6.78 6.85 6.92 6.99 7.06 7.13 7.22 7.29 7.37 7.45 7.54 7.63 7.74 7.7 7.59 7.67 8.12 8.21 8.34 8.44 8.56 8.68 7.15 7.18 9.07 9.21 9.36 9.49 9.65 9.81 9.98 10.15 10.34 10.51 10.72 10.92 11.14 11.36 11.6 11.75 81.91 81.91 15.69 15.67 15.63 15.56 15.27 15.21 15.09 14.82 14.89 15.87 16.35 16.87 15.67 17.99 17.34 18.69 15.55 15.55 21.68 18.28 23.69 24.7 25.87 26.68 81.91 30.23 32.44 81.91 81.91 81.91 81.91 81.91 81.91 34.66 81.91 81.91 81.91 81.91 81.91 81.91 34.61 34.6 34.59 34.62 34.62 34.6 81.91 81.91 81.91 81.91 17.94 17.88 18.02 20.16 19.67 19.06 17.92 17.81 17.81 19.52 19.36 24.24 24.25 24.26 81.91 81.91 33.89 81.91 31.91 30.52 28.88 28.85 28.88 25.96 23.05 22.65 22.34 17.94 17.56 17.03 16.23 15.44 14.6 14.07 14.04 14.07 12 11.68 10.51 10.07 9.71 9.38 9.3 9.33 9.13 8.87 8.62 8.4 8.16 7.93 7.75 7.56 7.35 7.19 7.01 5.68 5.57 5.57 5.59 5.61 5.61 6.09 5.97 5.95 5.98 6 6.02 6.05 6.07 6.09 6.12 4.65 4.66 4.61 6.05 6.17 6.35 6.54 6.56 6.61 6.63 6.68 6.7 6.75 4.26 4.21 4.17 4.13 4.07 4.04 3.98 3.95 3.91 3.84 3.59 3.31 3.29 3.28 3.25 3.25 3.26 3.21 3.1 3.08 3.06 3.03 3.04 3.02 3.06 3.05 2.93 2.89 2.87 2.86 2.84 2.82 2.82 2.83 2.83 2.89 2.86 2.85 2.83 2.81 2.8 2.79 2.76 2.75 2.73 2.72 2.7 2.69 2.67 2.66 2.64 2.64 2.62 2.61 2.59 2.59 2.58 2.57 2.55 2.54 2.53 2.52 2.51 2.51 2.49 2.49 2.46 2.46 2.44 2.44 2.43 2.42 2.42 2.42 2.41 2.4 2.39 2.39 2.38 2.38 2.37 2.46 2.52 2.54 2.54 2.53 2.53 2.52 2.52 2.51 2.5 2.5 2.5 2.49 2.49 2.47 2.47 2.46 2.47 2.47 2.46 2.46 2.46 2.46 2.46 2.46 2.46 2.46 2.46 2.46 2.46 2.46 2.46 2.46 2.46 2.46 2.46 2.46 2.46 2.47 2.46 2.49 2.47 2.49 2.49 2.49 2.49 2.51 2.5 2.51 2.52 2.53 2.53 2.54 2.54 2.54 2.55 2.55 2.55 2.56 2.57 2.58 2.59 2.6 2.6 2.6 2.61 0.255491 4.20744 -2.84173 0.255491 4.20744 -2.84173 207.357 pippo 207.357
ODOM 0.255491 4.20744 -2.84173 0 0 0 0 pippo 0
NEFF 12.4376
ODOM 0.179367 4.18391 -2.84306 0 0 0 207.577 pippo 207.577
ODOM 0.10848 4.16216 -2.84156 0 0 0 207.695 pippo 207.695
ODOM 0.0177928 4.13406 -2.84256 0 0 0 207.946 pippo 207.946
ODOM -0.0678267 4.10762 -2.84459 0 0 0 208.168 pippo 208.168
ODOM -0.138073 4.08609 -2.84535 0 0 0 208.388 pippo 208.388
ODOM -0.17794 4.0742 -2.83868 0 0 0 208.636 pippo 208.636
ODOM -0.180986 4.07191 -2.87076 0 0 0 208.988 pippo 208.988
ODOM -0.181045 4.06891 -2.94291 0 0 0 209.312 pippo 209.312
ODOM -0.187652 4.06515 -3.00697 0 0 0 209.487 pippo 209.487
ODOM -0.2352 4.05651 -3.09269 0 0 0 209.738 pippo 209.738
ODOM -0.311993 4.04924 3.11164 0 0 0 209.847 pippo 209.847
ODOM -0.38529 4.05014 3.05274 0 0 0 210.081 pippo 210.081
ODOM -0.459529 4.05587 3.00997 0 0 0 210.308 pippo 210.308
ODOM -0.551354 4.06772 2.98082 0 0 0 210.546 pippo 210.546
ODOM -0.645584 4.08241 2.96019 0 0 0 210.767 pippo 210.767
ODOM -0.721044 4.09606 2.95059 0 0 0 210.988 pippo 210.988
FLASER 360 4.9 4.91 4.91 4.91 4.91 4.92 4.92 4.92 4.93 4.94 4.93 4.95 4.94 4.95 4.96 4.97 4.97 4.98 4.99 5 5.01 5.02 5.04 5.04 5.05 5.06 5.09 5.11 5.12 5.14 5.15 5.15 5.17 5.18 5.2 5.22 5.23 5.25 5.27 5.28 5.29 5.31 5.34 5.35 5.39 5.41 5.43 5.45 5.47 5.5 5.39 5.29 5.43 5.59 5.62 5.64 5.68 4.86 4.79 4.88 5.12 5.84 5.87 5.91 5.94 5.96 6.01 6.04 6.08 6.12 6.16 6.21 6.25 6.29 6.34 6.39 6.43 6.47 6.53 6.58 6.63 6.69 6.74 6.79 6.86 6.91 6.98 7.04 7.1 7.17 7.12 7.07 7.09 7.41 7.54 7.62 7.72 7.79 7.87 6.71 6.6 8.14 8.24 8.34 8.45 8.54 8.66 8.76 8.88 8.99 9.13 9.24 9.37 9.5 9.65 9.79 9.94 10.09 10.28 10.44 10.61 10.8 11 11.12 81.91 81.91 81.91 14.98 14.96 14.91 14.86 14.73 14.48 14.42 14.38 14.41 14.65 14.98 15.41 15.77 14.9 14.84 17.13 16.48 14.74 14.73 19.52 20.11 17.46 17.39 22.51 23.34 24.37 25.29 81.91 28.43 29.2 31.44 81.91 81.91 81.91 81.91 81.91 81.91 33.78 33.76 81.91 81.91 81.91 81.91 81.91 81.91 81.91 33.65 33.64 33.67 33.68 33.66 33.67 81.91 81.91 17.93 17.2 19.17 19.2 19.01 18.13 18.58 16.96 16.95 18.54 18.43 18.38 23.27 23.28 23.43 81.91 81.91 32.94 32.91 30.98 30 29.49 27.85 27.89 24.99 24.91 21.98 21.42 21.35 16.7 16.55 15.88 15.01 14.19 13.54 13.04 13.04 13.06 13.07 10.82 10.45 9.3 8.96 8.63 8.38 8.3 8.3 8.2 7.93 7.73 7.57 7.38 7.19 6.98 6.84 6.66 6.54 6.36 6.22 6.1 5.97 5.86 4.64 4.59 4.57 4.61 4.61 4.62 4.7 5.06 4.99 5 5.01 5.03 5.07 5.1 5.13 5.15 5.16 5.21 5.23 5.05 5.03 5.11 3.76 3.83 5.54 5.65 5.67 5.72 5.74 5.79 5.82 5.87 5.89 5.94 5.97 6.02 6.05 4.2 4.23 3.4 3.34 3.31 3.28 3.25 3.23 3.2 3.18 3.14 3.13 3.12 3.08 3.05 3.04 3 2.98 2.96 2.89 2.55 2.53 2.52 2.49 2.51 2.45 2.46 2.45 2.52 2.52 2.43 2.4 2.37 2.37 2.34 2.33 2.3 2.3 2.3 2.3 2.34 2.34 2.39 2.38 2.26 2.24 2.22 2.22 2.21 2.2 2.17 2.16 2.2 2.2 2.19 2.18 2.22 2.24 2.25 2.25 2.23 2.24 2.22 2.22 2.21 2.2 2.2 2.2 2.19 2.19 2.19 2.19 2.18 2.18 2.17 2.17 2.16 2.16 2.15 2.15 -0.756995 4.07518 2.9709 -0.756995 4.07518 2.9709 210.988 pippo 210.988
ODOM -0.756995 4.07518 2.9709 0 0 0 0 pippo 0
NEFF 26.7931
ODOM -0.830418 4.0877 2.96657 0 0 0 211.108 pippo 211.108
ODOM -0.939748 4.10691 2.9552 0 0 0 211.335 pippo 211.335
ODOM -1.01949 4.12184 2.95152 0 0 0 211.556 pippo 211.556
ODOM -1.09822 4.13688 2.94728 0 0 0 211.777 pippo 211.777
ODOM -1.15464 4.14809 2.94963 0 0 0 211.999 pippo 211.999
ODOM -1.1645 4.15002 2.94962 0 0 0 212.217 pippo 212.217
ODOM -1.16449 4.15004 2.95026 0 0 0 212.438 pippo 212.438
ODOM -1.1645 4.15002 2.94962 0 0 0 212.658 pippo 212.658
ODOM -1.1645 4.15002 2.94962 0 0 0 212.878 pippo 212.878
ODOM -1.1645 4.15002 2.94962 0 0 0 213.098 pippo 213.098
ODOM -1.1646 4.14953 2.9372 0 0 0 213.319 pippo 213.319
ODOM -1.16528 4.14753 2.88463 0 0 0 213.538 pippo 213.538
ODOM -1.17009 4.14522 2.79281 0 0 0 213.757 pippo 213.757
ODOM -1.1954 4.15209 2.72147 0 0 0 213.978 pippo 213.978
ODOM -1.24814 4.174 2.66207 0 0 0 214.096 pippo 214.096
ODOM -1.31857 4.20919 2.59701 0 0 0 214.316 pippo 214.316
ODOM -1.41293 4.26489 2.52754 0 0 0 214.557 pippo 214.557
ODOM -1.47616 4.30851 2.48873 0 0 0 214.777 pippo 214.777
ODOM -1.54043 4.35696 2.45771 0 0 0 214.998 pippo 214.998
FLASER 360 5.3 5.29 5.26 5.25 5.23 5.21 5.19 5.17 5.16 5.14 5.12 5.11 5.09 5.06 5.05 5.03 5.02 5 4.99 4.97 4.96 4.95 4.94 4.94 4.93 4.92 4.91 4.9 4.89 4.88 4.87 4.86 4.86 4.86 4.85 4.84 4.84 4.83 4.82 4.81 4.81 4.8 4.8 4.8 4.8 4.8 4.8 4.8 4.8 4.8 4.8 4.8 4.8 4.8 4.8 4.8 4.8 4.8 4.8 4.8 4.81 4.82 4.82 4.83 4.84 4.84 4.86 4.86 4.86 4.86 4.87 4.88 4.89 4.9 4.91 4.92 4.93 4.94 4.94 4.95 4.97 4.98 4.99 5 5.02 5.04 5.05 5.06 4.94 4.87 5 5.14 5.16 4.77 4.28 4.45 4.38 5.26 5.29 5.28 5.32 5.33 5.36 5.38 5.41 5.43 5.45 5.48 5.52 5.53 5.56 5.58 5.62 5.64 5.68 5.7 5.74 5.77 5.81 5.83 5.87 5.9 5.96 5.98 6.03 6.05 6.1 6.13 6.19 6.22 6.28 6.32 6.38 6.41 6.48 6.52 6.43 6.42 6.44 6.75 6.81 6.86 6.94 6.98 7.07 6.01 6.03 7.26 7.36 7.4 7.51 7.56 7.68 7.74 7.87 7.92 8.04 8.1 8.22 8.29 8.43 8.5 8.64 8.73 8.87 8.97 9.13 9.22 9.38 9.47 9.66 9.77 9.96 10.08 10.25 81.91 81.91 81.91 81.91 14.21 14.17 14.14 14.07 14.01 13.82 13.66 13.53 13.3 13.18 13.28 14.14 14.41 14.85 14.04 14.02 15.98 16.47 15.69 13.87 13.88 18.73 19.18 16.6 16.57 21.57 22.19 23.36 24.12 81.91 81.91 27.94 28.65 30.81 81.91 81.91 81.91 81.91 81.91 81.91 32.91 81.91 81.91 81.91 81.91 81.91 81.91 81.91 32.84 32.81 32.83 32.84 32.83 32.82 32.81 81.91 81.91 81.91 16.12 16.11 16.2 17.06 18 17.24 17.74 16.04 15.98 17.84 17.72 17.55 22.46 22.48 22.42 81.91 81.91 32.09 81.91 30.16 29.24 28.58 27.06 27.09 24.3 24.12 81.91 20.81 20.57 16.71 16.1 15.81 15.24 14.6 14.1 13.3 12.88 12.29 12.28 12.31 12.33 12.36 10.25 9.83 9.6 8.64 8.4 8.1 7.95 7.68 7.59 7.59 7.61 7.43 7.29 7.09 6.99 6.79 6.71 6.53 6.43 6.25 6.17 6.03 5.95 5.81 5.73 5.61 5.55 5.42 5.36 5.26 5.19 5.07 5.04 4.94 4.26 4 3.97 3.99 4.01 4.15 4.02 4.46 4.44 4.44 4.44 4.49 4.51 4.55 4.57 4.62 4.62 4.68 4.7 4.74 4.68 4.54 4.6 4.69 4.83 5.19 5.23 5.28 5.3 5.36 3.23 3.22 5.49 5.56 5.59 5.66 5.69 5.72 5.7 5.75 5.78 5.83 5.86 5.91 4.1 3.84 3.94 -1.57481 4.42258 2.49834 -1.57481 4.42258 2.49834 214.998 pippo 214.998
ODOM -1.57481 4.42258 2.49834 0 0 0 0 pippo 0
NEFF 23.2584
ODOM -1.63655 4.46826 2.47566 0 0 0 215.217 pippo 215.217
ODOM -1.70761 4.52381 2.45646 0 0 0 215.446 pippo 215.446
ODOM -1.78749 4.58862 2.44117 0 0 0 215.668 pippo 215.668
ODOM -1.84625 4.63798 2.43426 0 0 0 215.888 pippo 215.888
ODOM -1.90744 4.69013 2.42812 0 0 0 216.108 pippo 216.108
ODOM -1.96544 4.74023 2.42379 0 0 0 216.327 pippo 216.327
ODOM -2.04501 4.80966 2.41843 0 0 0 216.458 pippo 216.458
ODOM -2.10801 4.86517 2.41522 0 0 0 216.677 pippo 216.677
ODOM -2.1654 4.91607 2.41229 0 0 0 216.9 pippo 216.9
ODOM -2.22221 4.96681 2.41039 0 0 0 217.117 pippo 217.117
ODOM -2.30662 5.04253 2.41116 0 0 0 217.347 pippo 217.347
ODOM -2.36654 5.09625 2.41115 0 0 0 217.566 pippo 217.566
FLASER 360 4.97 4.94 4.92 4.89 4.87 4.85 4.83 4.8 4.78 4.77 4.75 4.72 4.71 4.69 4.67 4.65 4.65 4.62 4.61 4.59 4.58 4.57 4.55 4.54 4.52 4.51 4.5 4.48 4.47 4.46 4.46 4.44 4.43 4.42 4.41 4.41 4.4 4.39 4.38 4.37 4.36 4.35 4.35 4.35 4.35 4.33 4.33 4.32 4.32 4.31 4.31 4.31 4.3 4.3 4.3 4.3 4.3 4.29 4.29 4.29 4.29 4.29 4.29 4.29 4.29 4.29 4.3 4.3 4.31 4.31 4.32 4.32 4.32 4.33 4.34 4.34 4.34 4.35 4.35 4.25 4.18 4.22 4.36 3.54 3.69 3.56 3.9 4.41 4.43 4.44 4.45 4.46 4.47 4.48 4.5 4.51 4.52 4.53 4.55 4.56 4.58 4.58 4.61 4.62 4.64 4.65 4.67 4.69 4.71 4.72 4.75 4.77 4.78 4.8 4.83 4.85 4.87 4.89 4.93 4.94 4.96 4.98 5.02 5.03 5.06 5.11 5.14 5.17 5.2 5.23 5.27 5.29 5.32 5.35 5.39 5.42 5.46 5.49 5.54 5.44 5.42 5.39 5.49 5.74 5.78 5.83 5.88 5.93 5.98 5.05 4.96 4.99 6.19 6.24 6.31 6.36 6.42 6.49 6.56 6.62 6.69 6.77 6.85 6.91 6.99 7.07 7.16 7.23 7.33 7.41 7.51 7.6 7.7 7.8 7.9 8.01 8.13 8.24 8.36 8.49 8.61 8.75 8.88 9.02 9.15 9.26 81.91 81.91 81.91 81.91 13.17 13.13 13.09 13.03 12.99 12.85 12.66 12.59 12.36 12.18 12.18 12.64 13.19 13.53 13.9 13.04 13.01 15.12 15.48 14.66 12.87 12.85 17.75 18.34 19.03 15.56 20.6 21.44 22.36 23.35 81.91 81.91 27.11 81.91 30.08 81.91 81.91 81.91 81.91 81.91 81.91 31.95 81.91 81.91 81.91 81.91 81.91 81.91 31.89 31.91 31.93 31.88 31.95 31.92 31.91 81.91 81.91 81.91 81.91 81.91 81.91 15.26 15.21 15.34 17.51 16.28 16.47 16.49 81.91 15.17 15.17 16.97 16.75 16.76 21.68 21.64 81.91 31.32 81.91 29.39 28.43 27.85 26.33 26.32 26.39 23.51 23.39 81.91 20.59 19.89 19.89 17.66 15.93 15.3 15.13 15.01 14.31 13.83 13.35 12.91 12.47 12.09 11.72 11.65 11.69 11.71 11.76 11.77 11.81 9.65 9.42 9.22 8.99 8.8 8.24 7.97 7.79 7.66 7.49 7.35 7.2 7.09 7.07 7.1 7.08 6.95 6.8 6.7 6.6 6.5 6.42 6.34 6.24 6.14 6.05 5.98 5.89 5.81 5.74 5.67 5.6 5.53 5.46 5.4 5.34 5.27 5.2 5.16 5.1 5.04 5 4.95 4.88 4.85 4.81 4.75 4.71 4.66 4.62 4.58 4.54 4.51 4.47 4 3.76 3.74 3.76 3.82 4.07 3.86 -2.36278 5.08998 2.40959 -2.36278 5.08998 2.40959 217.566 pippo 217.566
ODOM -2.36278 5.08998 2.40959 0 0 0 0 pippo 0
NEFF 22.0241
ODOM -2.41948 5.14089 2.40883 0 0 0 217.787 pippo 217.787
ODOM -2.47939 5.19479 2.40883 0 0 0 218.007 pippo 218.007
ODOM -2.5561 5.26375 2.40731 0 0 0 218.155 pippo 218.155
ODOM -2.61211 5.31437 2.40862 0 0 0 218.376 pippo 218.376
ODOM -2.67178 5.36809 2.40883 0 0 0 218.597 pippo 218.597
ODOM -2.72819 5.41886 2.40883 0 0 0 218.817 pippo 218.817
ODOM -2.80524 5.48828 2.40833 0 0 0 219.037 pippo 219.037
ODOM -2.87206 5.54845 2.40794 0 0 0 219.256 pippo 219.256
ODOM -2.93176 5.60225 2.40793 0 0 0 219.477 pippo 219.477
ODOM -2.98605 5.65116 2.40668 0 0 0 219.707 pippo 219.707
ODOM -3.05573 5.71418 2.40633 0 0 0 219.937 pippo 219.937
ODOM -3.12902 5.7805 2.4073 0 0 0 220.158 pippo 220.158
