ODOM 0 0 0 0 0 0 0.110201 pippo 0.110201
ODOM 0 0 0 0 0 0 0.2307 pippo 0.2307
ODOM 0 0 0 0 0 0 0.3416 pippo 0.3416
ODOM 0 0 0 0 0 0 0.459901 pippo 0.459901
ODOM 0 0 0 0 0 0 0.659901 pippo 0.659901
ODOM 0 0 0 0 0 0 0.740301 pippo 0.740301
ODOM 0 0 0 0 0 0 0.9002 pippo 0.9002
ODOM 0 0 0 0 0 0 1.0604 pippo 1.0604
ODOM 0 0 0 0 0 0 1.2199 pippo 1.2199
ODOM 0 0 0 0 0 0 1.3799 pippo 1.3799
ODOM 0 0 0 0 0 0 1.4599 pippo 1.4599
ODOM 0 0 0 0 0 0 1.6199 pippo 1.6199
ODOM 0 0 0 0 0 0 1.7803 pippo 1.7803
ODOM 0 0 0 0 0 0 1.9414 pippo 1.9414
ODOM 0 0 0 0 0 0 2.0202 pippo 2.0202
ODOM 0 0 0 0 0 0 2.2599 pippo 2.2599
ODOM 0 0 0 0 0 0 2.3416 pippo 2.3416
ODOM 0 0 0 0 0 0 2.5002 pippo 2.5002
ODOM 0 0 0 0 0 0 2.6215 pippo 2.6215
ODOM 0 0 0 0 0 0 2.7006 pippo 2.7006
ODOM 0 0 0 0 0 0 2.9416 pippo 2.9416
ODOM 0 0 0 0 0 0 3.0602 pippo 3.0602
ODOM 0 0 0 0 0 0 3.1801 pippo 3.1801
ODOM 0 0 0 0 0 0 3.2999 pippo 3.2999
ODOM 0 0 0 0 0 0 3.5418 pippo 3.5418
ODOM 0 0 0 0 0 0 3.6516 pippo 3.6516
ODOM 0 0 0 0 0 0 3.8105 pippo 3.8105
ODOM 0 0 0 0 0 0 3.9705 pippo 3.9705
ODOM 0 0 0 0 0 0 4.1308 pippo 4.1308
ODOM 0 0 0 0 0 0 4.2899 pippo 4.2899
ODOM 0 0 0 0 0 0 4.3707 pippo 4.3707
ODOM 0 0 0 0 0 0 4.5305 pippo 4.5305
ODOM 0 0 0 0 0 0 4.6905 pippo 4.6905
ODOM 0 0 0 0 0 0 4.8514 pippo 4.8514
ODOM 0 0 0 0 0 0 5.0099 pippo 5.0099
ODOM 0 0 0 0 0 0 5.1699 pippo 5.1699
ODOM 0 0 0 0 0 0 5.3299 pippo 5.3299
ODOM 0 0 0 0 0 0 5.4905 pippo 5.4905
ODOM 0 0 0 0 0 0 5.6914 pippo 5.6914
ODOM 0 0 0 0 0 0 5.7699 pippo 5.7699
ODOM 0 0 0 0 0 0 6.0103 pippo 6.0103
ODOM 0 0 0 0 0 0 6.1302 pippo 6.1302
ODOM 0 0 0 0 0 0 6.2502 pippo 6.2502
ODOM 0 0 0 0 0 0 6.4899 pippo 6.4899
ODOM 0 0 0 0 0 0 6.6103 pippo 6.6103
ODOM 0 0 0 0 0 0 6.7299 pippo 6.7299
ODOM 0 0 0 0 0 0 6.8905 pippo 6.8905
ODOM 0 0 0 0 0 0 7.0499 pippo 7.0499
ODOM 0 0 0 0 0 0 7.2099 pippo 7.2099
ODOM 0 0 0 0 0 0 7.2904 pippo 7.2904
ODOM 0 0 0 0 0 0 7.4499 pippo 7.4499
ODOM 0 0 0 0 0 0 7.6115 pippo 7.6115
ODOM 0 0 0 0 0 0 7.7699 pippo 7.7699
ODOM 0 0 0 0 0 0 7.9299 pippo 7.9299
ODOM 0 0 0 0 0 0 8.0899 pippo 8.0899
ODOM 0 0 0 0 0 0 8.2499 pippo 8.2499
ODOM 0 0 0 0 0 0 8.4899 pippo 8.4899
ODOM 0 0 0 0 0 0 8.5627 pippo 8.5627
ODOM 0 0 0 0 0 0 8.7699 pippo 8.7699
ODOM 0 0 0 0 0 0 8.8502 pippo 8.8502
ODOM 0 0 0 0 0 0 9.0903 pippo 9.0903
ODOM 0 0 0 0 0 0 9.2103 pippo 9.2103
ODOM 0 0 0 0 0 0 9.3309 pippo 9.3309
ODOM 0 0 0 0 0 0 9.4516 pippo 9.4516
ODOM 0 0 0 0 0 0 9.6902 pippo 9.6902
ODOM 0 0 0 0 0 0 9.8799 pippo 9.8799
ODOM 0 0 0 0 0 0 9.9599 pippo 9.9599
ODOM 0 0 0 0 0 0 10.1203 pippo 10.1203
ODOM 0 0 0 0 0 0 10.2799 pippo 10.2799
ODOM 0 0 0 0 0 0 10.4405 pippo 10.4405
ODOM 0 0 0 0 0 0 10.5199 pippo 10.5199
ODOM 0 0 0 0 0 0 10.7604 pippo 10.7604
ODOM 0 0 0 0 0 0 10.9219 pippo 10.9219
ODOM 0 0 0 0 0 0 11.0799 pippo 11.0799
ODOM 0 0 0 0 0 0 11.2399 pippo 11.2399
ODOM 0 0 0 0 0 0 11.3999 pippo 11.3999
ODOM 0 0 0 0 0 0 11.5602 pippo 11.5602
ODOM 0 0 0 0 0 0 11.8399 pippo 11.8399
ODOM 0 0 0 0 0 0 11.9206 pippo 11.9206
ODOM 0 0 0 0 0 0 12.1599 pippo 12.1599
ODOM 0 0 0 0 0 0 12.283 pippo 12.283
ODOM 0 0 0 0 0 0 12.4006 pippo 12.4006
ODOM 0 0 0 0 0 0 12.5205 pippo 12.5205
ODOM 0 0 0 0 0 0 12.7603 pippo 12.7603
ODOM 0 0 0 0 0 0 12.8816 pippo 12.8816
ODOM 0 0 0 0 0 0 13.0399 pippo 13.0399
ODOM 0 0 0 0 0 0 13.1999 pippo 13.1999
ODOM 0 0 0 0 0 0 13.2805 pippo 13.2805
ODOM 0 0 0 0 0 0 13.5199 pippo 13.5199
ODOM 0 0 0 0 0 0 13.5999 pippo 13.5999
ODOM 0 0 0 0 0 0 13.8405 pippo 13.8405
ODOM 0 0 0 0 0 0 13.9899 pippo 13.9899
ODOM 0 0 0 0 0 0 14.1499 pippo 14.1499
ODOM 0 0 0 0 0 0 14.3099 pippo 14.3099
ODOM 0 0 0 0 0 0 14.4699 pippo 14.4699
ODOM 0 0 0 0 0 0 14.5499 pippo 14.5499
ODOM 0 0 0 0 0 0 14.7099 pippo 14.7099
ODOM 0 0 0 0 0 0 14.8002 pippo 14.8002
ODOM 0 0 0 0 0 0 14.9899 pippo 14.9899
ODOM 0 0 0 0 0 0 15.1099 pippo 15.1099
ODOM 0 0 0 0 0 0 15.2402 pippo 15.2402
ODOM 0 0 0 0 0 0 15.48 pippo 15.48
ODOM 0 0 0 0 0 0 15.5999 pippo 15.5999
ODOM 0 0 0 0 0 0 15.7099 pippo 15.7099
ODOM 0 0 0 0 0 0 15.833 pippo 15.833
ODOM 0 0 0 0 0 0 16.1102 pippo 16.1102
ODOM 0 0 0 0 0 0 16.192 pippo 16.192
ODOM 0 0 0 0 0 0 16.4299 pippo 16.4299
ODOM 0 0 0 0 0 0 16.5099 pippo 16.5099
ODOM 0 0 0 0 0 0 16.7499 pippo 16.7499
ODOM 0 0 0 0 0 0 16.8305 pippo 16.8305
ODOM 0 0 0 0 0 0 17.0702 pippo 17.0702
ODOM 0 0 0 0 0 0 17.1518 pippo 17.1518
ODOM 0 0 0 0 0 0 17.3099 pippo 17.3099
ODOM 0 0 0 0 0 0 17.4699 pippo 17.4699
ODOM 0 0 0 0 0 0 17.6299 pippo 17.6299
ODOM 0 0 0 0 0 0 17.7902 pippo 17.7902
ODOM 0 0 0 0 0 0 17.8716 pippo 17.8716
ODOM 0 0 0 0 0 0 18.0699 pippo 18.0699
ODOM 0 0 0 0 0 0 18.1906 pippo 18.1906
ODOM 0 0 0 0 0 0 18.3103 pippo 18.3103
ODOM 0 0 0 0 0 0 18.4325 pippo 18.4325
ODOM 0 0 0 0 0 0 18.6699 pippo 18.6699
ODOM 0 0 0 0 0 0 18.7899 pippo 18.7899
ODOM 0 0 0 0 0 0 19.0299 pippo 19.0299
ODOM 0 0 0 0 0 0 19.1906 pippo 19.1906
ODOM 0.00454 -3.70015e-05 -0.013036 0 0 0 19.3503 pippo 19.3503
ODOM 0.018287 -0.000344006 -0.026062 0 0 0 19.4999 pippo 19.4999
ODOM 0.063495 -0.00281102 -0.07441 0 0 0 19.7409 pippo 19.7409
ODOM 0.150511 -0.011866 -0.121908 0 0 0 19.8199 pippo 19.8199
ODOM 0.279931 -0.0298001 -0.145233 0 0 0 20.0599 pippo 20.0599
ODOM 0.406872 -0.0490351 -0.14755 0 0 0 20.2199 pippo 20.2199
ODOM 0.598356 -0.0775332 -0.143555 0 0 0 20.3804 pippo 20.3804
ODOM 0.697703 -0.0916572 -0.133046 0 0 0 20.5399 pippo 20.5399
ODOM 0.803041 -0.106567 -0.164782 0 0 0 20.6999 pippo 20.6999
ODOM 0.869214 -0.120372 -0.284382 0 0 0 20.8603 pippo 20.8603
ODOM 0.909588 -0.135916 -0.475854 0 0 0 21.0199 pippo 21.0199
FLASER 180 6.66 6.86 7.16 7.46 7.81 8.16 9.84 10.06 10.61 11.21 12.66 12.71 12.91 12.91 12.86 13.11 13.66 50 50 50 50 50 50 50 50 50 50 50 50 9.71 7.86 6.66 5.81 5.06 4.51 4.16 3.76 3.46 3.21 3.01 2.76 2.61 2.46 2.36 2.21 2.11 2.01 1.91 1.84 1.79 1.69 1.64 1.59 1.54 1.49 1.44 1.39 1.39 1.29 1.29 1.24 1.24 1.19 1.14 1.14 1.11 1.11 1.06 1.04 1.06 1.11 1.11 1.14 1.19 1.14 1.19 1.24 1.24 1.29 1.29 1.34 1.34 1.44 1.49 1.49 1.54 1.64 1.69 1.69 1.79 1.84 1.89 1.96 2.06 2.11 2.26 2.36 2.46 2.61 2.71 2.91 3.11 3.36 3.61 3.96 4.36 4.56 4.91 4.91 4.91 4.96 5.01 5.06 5.01 5.06 5.11 5.11 5.16 5.21 5.26 5.26 5.31 5.36 5.36 5.46 5.56 5.56 5.61 4.96 4.51 4.11 3.86 3.61 3.51 3.56 3.56 3.91 3.96 3.96 4.06 50 50 50 50 4.31 4.26 2.04 1.99 1.94 1.84 1.79 1.74 1.74 1.69 1.64 1.64 1.54 1.49 1.54 1.44 1.44 1.44 1.39 1.34 1.39 1.34 1.34 1.29 1.29 1.24 1.24 1.29 1.29 1.34 1.39 1.39 1.44 1.49 1.54 1.64 0.89706 -0.180771 -0.454003 0.89706 -0.180771 -0.454003 21.0199 pippo 21.0199
ODOM 0.89706 -0.180771 -0.454003 0 0 0 0 pippo 0
NEFF 30
ODOM 0.894731 -0.179497 -0.517684 0 0 0 21.1417 pippo 21.1417
ODOM 0.891485 -0.177452 -0.595879 0 0 0 21.3814 pippo 21.3814
ODOM 0.881486 -0.170328 -0.676162 0 0 0 21.4999 pippo 21.4999
ODOM 0.877608 -0.166994 -0.766544 0 0 0 21.6319 pippo 21.6319
ODOM 0.880919 -0.170764 -0.900849 0 0 0 21.8599 pippo 21.8599
ODOM 0.88487 -0.176229 -1.00111 0 0 0 21.9802 pippo 21.9802
FLASER 180 3.24 3.29 3.34 3.39 3.39 3.49 3.49 3.56 3.61 3.66 3.76 3.81 3.86 3.91 4.01 4.11 4.16 4.26 4.31 4.41 4.56 4.66 4.76 4.91 5.06 5.21 5.31 5.46 5.71 5.86 6.06 6.26 6.56 6.81 7.01 7.31 7.66 8.06 9.81 9.81 10.46 11.11 12.67 12.61 12.91 13.11 12.91 13.11 13.46 21.91 21.91 21.91 50 39.66 50 43.46 12.26 12.21 12.01 12.01 12.06 10.46 8.56 7.26 6.26 5.51 4.96 4.46 4.06 3.76 3.46 3.21 3.01 2.86 2.66 2.51 2.36 2.26 2.16 2.06 1.99 1.94 1.89 1.79 1.74 1.69 1.64 1.54 1.54 1.49 1.44 1.34 1.34 1.34 1.29 1.24 1.24 1.24 1.19 1.19 1.17 1.15 1.1 1.12 1.15 1.15 1.14 1.19 1.19 1.24 1.29 1.29 1.34 1.39 1.39 1.44 1.49 1.54 1.59 1.64 1.64 1.74 1.79 1.89 1.91 1.96 2.11 2.21 2.31 2.41 2.56 2.66 2.91 3.06 3.31 3.56 3.86 4.16 4.66 5.21 5.81 6.66 7.66 9.36 11.86 18.71 23.76 23.81 29.46 29.41 29.46 16.06 13.01 10.66 9.26 8.11 7.06 6.31 5.71 5.26 4.86 4.46 4.16 3.91 3.66 3.59 3.59 3.96 3.96 3.96 4.01 4.26 50 50 50 4.51 4.36 2.09 2.04 1.94 0.829539 -0.206873 -1.00736 0.829539 -0.206873 -1.00736 21.9802 pippo 21.9802
ODOM 0.829539 -0.206873 -1.00736 0 0 0 0 pippo 0
NEFF 29.9086
ODOM 0.831985 -0.211253 -1.13242 0 0 0 22.2599 pippo 22.2599
ODOM 0.831729 -0.21026 -1.31822 0 0 0 22.4199 pippo 22.4199
ODOM 0.831265 -0.208103 -1.41007 0 0 0 22.5799 pippo 22.5799
ODOM 0.830999 -0.205497 -1.53092 0 0 0 22.74 pippo 22.74
FLASER 180 11.81 9.46 7.71 6.76 6.36 5.16 4.61 4.21 3.86 3.56 3.31 1.86 1.84 1.84 1.89 2.09 1.86 1.89 1.89 1.89 2.34 2.94 2.94 3.04 2.99 3.09 3.09 3.09 3.14 3.16 3.24 3.21 3.26 3.31 3.36 3.41 3.46 3.51 3.56 3.61 3.71 3.76 3.81 3.91 3.96 4.06 4.11 4.21 4.31 4.36 4.51 4.61 4.71 4.86 5.01 5.11 5.26 5.46 5.61 5.81 5.96 6.21 6.46 6.66 7.01 7.21 7.56 7.96 9.86 9.81 10.36 11.01 12.66 12.66 12.86 13.01 13.01 13.11 13.36 21.91 21.91 21.91 50 39.86 50 43.36 12.51 12.26 12.06 11.96 12.06 10.91 8.91 7.51 6.51 5.71 5.16 4.61 4.26 3.91 3.61 3.36 3.11 2.96 2.76 2.66 2.51 2.36 2.26 2.16 2.06 1.96 1.91 1.81 1.79 1.74 1.69 1.59 1.59 1.54 1.49 1.49 1.44 1.39 1.34 1.34 1.29 1.24 1.24 1.19 1.14 1.15 1.15 1.1 1.1 1.15 1.15 1.12 1.19 1.19 1.24 1.29 1.29 1.34 1.39 1.39 1.44 1.49 1.54 1.64 1.69 1.74 1.79 1.84 1.94 2.01 2.11 2.21 2.31 2.41 2.51 2.71 2.86 3.06 3.26 3.51 3.81 4.21 4.66 5.21 5.81 6.76 8.51 9.56 12.31 17.86 23.81 29.46 29.46 29.46 0.79387 -0.240524 -1.52936 0.79387 -0.240524 -1.52936 22.74 pippo 22.74
ODOM 0.79387 -0.240524 -1.52936 0 0 0 0 pippo 0
NEFF 29.7926
ODOM 0.793855 -0.2411 -1.60952 0 0 0 22.9799 pippo 22.9799
ODOM 0.793678 -0.243715 -1.67763 0 0 0 23.0602 pippo 23.0602
ODOM 0.793228 -0.247042 -1.73543 0 0 0 23.2199 pippo 23.2199
ODOM 0.788504 -0.268059 -1.86154 0 0 0 23.4599 pippo 23.4599
ODOM 0.774008 -0.306496 -2.02337 0 0 0 23.7 pippo 23.7
ODOM 0.723794 -0.38681 -2.24364 0 0 0 23.8599 pippo 23.8599
FLASER 180 3.06 3.06 2.96 2.91 3.14 3.09 3.09 3.04 3.04 2.99 2.94 2.26 2.16 2.14 2.16 2.86 2.11 2.06 2.09 2.06 6.96 6.91 6.91 4.51 6.86 6.81 5.71 5.61 6.46 6.61 7.61 7.76 10.31 10.26 12.91 14.01 17.61 50 27.01 26.91 21.21 21.21 13.71 9.96 7.66 6.41 5.31 4.76 4.21 3.76 1.76 1.69 1.69 1.69 1.71 2.64 1.71 1.69 1.74 1.69 1.94 2.79 2.74 2.84 2.84 2.84 2.89 2.89 2.89 2.94 2.99 2.99 3.04 3.09 3.09 3.14 3.19 3.24 3.26 3.34 3.36 3.36 3.46 3.51 3.51 3.61 3.66 3.76 3.86 3.91 3.96 4.06 4.11 4.26 4.36 4.41 4.56 4.71 4.86 4.96 5.11 5.31 5.41 5.61 5.81 6.06 6.26 6.51 6.86 7.16 7.36 7.76 9.61 9.61 10.21 10.91 12.46 12.46 12.71 12.96 12.66 12.61 13.26 21.76 21.76 21.71 50 50 50 50 46.86 12.21 12.16 11.86 12.06 11.41 9.41 8.06 7.06 6.26 5.61 5.11 4.71 4.31 4.01 3.76 3.51 3.31 3.11 2.96 2.81 2.66 2.51 2.46 2.36 2.26 2.14 2.06 2.04 1.94 1.89 1.84 1.79 1.74 1.69 1.64 1.59 1.54 1.54 1.49 1.44 1.44 1.44 1.39 1.34 1.34 1.34 1.29 1.24 1.24 0.692955 -0.403484 -2.29364 0.692955 -0.403484 -2.29364 23.8599 pippo 23.8599
ODOM 0.692955 -0.403484 -2.29364 0 0 0 0 pippo 0
NEFF 29.7831
ODOM 0.625066 -0.472479 -2.41618 0 0 0 24.2199 pippo 24.2199
ODOM 0.41134 -0.653728 -2.41703 0 0 0 24.3414 pippo 24.3414
ODOM 0.345485 -0.714431 -2.38024 0 0 0 24.5799 pippo 24.5799
ODOM 0.270718 -0.790019 -2.33421 0 0 0 24.7005 pippo 24.7005
ODOM 0.204186 -0.860765 -2.31929 0 0 0 24.9399 pippo 24.9399
ODOM 0.118255 -0.956194 -2.28692 0 0 0 25.0602 pippo 25.0602
ODOM 0.0598342 -1.02518 -2.25561 0 0 0 25.3299 pippo 25.3299
ODOM -0.0229843 -1.13406 -2.18057 0 0 0 25.4099 pippo 25.4099
FLASER 180 6.91 6.86 6.76 6.71 6.66 6.61 6.56 5.66 5.36 5.31 1.06 1.09 1.04 1.09 1.09 1.06 1.11 1.16 1.04 1.06 0.99 0.99 1.04 1.06 1.11 18.16 50 1.91 1.97 1.97 1.97 1.92 1.92 1.97 1.97 1.97 1.94 1.97 1.94 1.94 1.94 2.02 2.02 1.94 1.99 1.99 1.99 1.99 1.99 2.04 2.04 2.04 2.09 2.04 2.14 2.09 2.14 2.14 2.14 2.19 2.19 2.24 2.24 2.29 2.29 2.34 2.39 2.39 2.39 2.49 2.49 2.54 2.59 2.59 2.64 2.74 2.74 2.79 2.81 2.94 2.96 2.96 3.06 3.11 3.21 3.26 3.36 3.46 3.56 3.66 3.71 3.86 4.01 4.11 4.26 4.41 4.56 4.76 4.96 5.21 5.41 5.71 6.01 6.31 6.61 7.06 8.71 9.31 10.01 11.54 11.61 11.76 11.91 11.81 12.06 12.46 21.01 20.96 23.21 39.86 42.56 46.06 50 50 11.41 11.41 11.16 11.11 11.21 10.91 9.86 8.86 8.11 7.46 6.91 6.41 6.01 5.66 5.36 5.06 4.81 4.56 4.36 4.16 4.01 3.81 3.71 3.56 3.46 3.31 3.21 3.11 3.01 2.91 2.86 2.81 2.71 2.64 2.59 2.54 2.49 2.44 2.39 2.34 2.29 2.24 2.19 2.14 2.19 2.09 2.09 2.04 2.04 1.99 1.94 1.89 1.89 1.89 1.87 1.82 0.0396975 -1.11351 -2.12432 0.0396975 -1.11351 -2.12432 25.4099 pippo 25.4099
ODOM 0.0396975 -1.11351 -2.12432 0 0 0 0 pippo 0
NEFF 29.6571
ODOM -0.00344011 -1.1878 -2.07387 0 0 0 25.5702 pippo 25.5702
ODOM -0.0335177 -1.24669 -2.01607 0 0 0 25.7299 pippo 25.7299
ODOM -0.0711531 -1.33421 -1.93873 0 0 0 25.9708 pippo 25.9708
ODOM -0.0961383 -1.40134 -1.92527 0 0 0 26.1303 pippo 26.1303
ODOM -0.116654 -1.45747 -1.92297 0 0 0 26.2899 pippo 26.2899
ODOM -0.148535 -1.54496 -1.92548 0 0 0 26.4505 pippo 26.4505
ODOM -0.182669 -1.63858 -1.9175 0 0 0 26.6099 pippo 26.6099
ODOM -0.209575 -1.71643 -1.88975 0 0 0 26.7705 pippo 26.7705
ODOM -0.232334 -1.78905 -1.85823 0 0 0 26.9299 pippo 26.9299
ODOM -0.252032 -1.85772 -1.85445 0 0 0 27.0899 pippo 27.0899
ODOM -0.261511 -1.89013 -1.86285 0 0 0 27.2104 pippo 27.2104
ODOM -0.267886 -1.91165 -1.85487 0 0 0 27.3699 pippo 27.3699
ODOM -0.267335 -1.90969 -1.84856 0 0 0 27.4899 pippo 27.4899
ODOM -0.265246 -1.90223 -1.84562 0 0 0 27.7299 pippo 27.7299
ODOM -0.264619 -1.89998 -1.84751 0 0 0 27.8502 pippo 27.8502
ODOM -0.264541 -1.89971 -1.84814 0 0 0 28.0899 pippo 28.0899
ODOM -0.264541 -1.89971 -1.84814 0 0 0 28.2099 pippo 28.2099
ODOM -0.264541 -1.89971 -1.84814 0 0 0 28.3699 pippo 28.3699
ODOM -0.264541 -1.89971 -1.84814 0 0 0 28.5303 pippo 28.5303
ODOM -0.264541 -1.89971 -1.84814 0 0 0 28.6899 pippo 28.6899
ODOM -0.264541 -1.89971 -1.84814 0 0 0 28.8499 pippo 28.8499
ODOM -0.264541 -1.89971 -1.84814 0 0 0 28.9299 pippo 28.9299
ODOM -0.264541 -1.89971 -1.84814 0 0 0 29.0914 pippo 29.0914
ODOM -0.264541 -1.89971 -1.84814 0 0 0 29.2503 pippo 29.2503
ODOM -0.264541 -1.89971 -1.84814 0 0 0 29.4099 pippo 29.4099
ODOM -0.264541 -1.89971 -1.84814 0 0 0 29.5699 pippo 29.5699
ODOM -0.264541 -1.89971 -1.84814 0 0 0 29.7309 pippo 29.7309
ODOM -0.264541 -1.89971 -1.84814 0 0 0 29.8103 pippo 29.8103
ODOM -0.264541 -1.89971 -1.84814 0 0 0 30.0413 pippo 30.0413
ODOM -0.264541 -1.89971 -1.84814 0 0 0 30.1323 pippo 30.1323
ODOM -0.264541 -1.89971 -1.84814 0 0 0 30.2503 pippo 30.2503
ODOM -0.264541 -1.89971 -1.84814 0 0 0 30.4503 pippo 30.4503
ODOM -0.264541 -1.89971 -1.84814 0 0 0 30.6913 pippo 30.6913
ODOM -0.264541 -1.89971 -1.84814 0 0 0 30.8103 pippo 30.8103
ODOM -0.264541 -1.89971 -1.84814 0 0 0 30.9313 pippo 30.9313
ODOM -0.264541 -1.89971 -1.84814 0 0 0 31.0503 pippo 31.0503
ODOM -0.264541 -1.89971 -1.84814 0 0 0 31.1703 pippo 31.1703
ODOM -0.264541 -1.89971 -1.84814 0 0 0 31.3603 pippo 31.3603
ODOM -0.264541 -1.89971 -1.84814 0 0 0 31.5203 pippo 31.5203
ODOM -0.264541 -1.89971 -1.84814 0 0 0 31.6803 pippo 31.6803
ODOM -0.264541 -1.89971 -1.84814 0 0 0 31.7613 pippo 31.7613
ODOM -0.264541 -1.89971 -1.84814 0 0 0 32.0003 pippo 32.0003
ODOM -0.264541 -1.89971 -1.84814 0 0 0 32.1613 pippo 32.1613
ODOM -0.264541 -1.89971 -1.84814 0 0 0 32.3203 pippo 32.3203
ODOM -0.264541 -1.89971 -1.84814 0 0 0 32.4013 pippo 32.4013
ODOM -0.264541 -1.89971 -1.84814 0 0 0 32.6403 pippo 32.6403
ODOM -0.264541 -1.89971 -1.84814 0 0 0 32.7213 pippo 32.7213
ODOM -0.264541 -1.89971 -1.84814 0 0 0 32.9603 pippo 32.9603
ODOM -0.264541 -1.89971 -1.84814 0 0 0 33.0403 pippo 33.0403
ODOM -0.264541 -1.89971 -1.84814 0 0 0 33.2003 pippo 33.2003
ODOM -0.264541 -1.89971 -1.84814 0 0 0 33.3203 pippo 33.3203
ODOM -0.264541 -1.89971 -1.84814 0 0 0 33.5223 pippo 33.5223
ODOM -0.264541 -1.89971 -1.84814 0 0 0 33.6403 pippo 33.6403
ODOM -0.264541 -1.89971 -1.84814 0 0 0 33.7603 pippo 33.7603
ODOM -0.264541 -1.89971 -1.84814 0 0 0 33.8803 pippo 33.8803
ODOM -0.264541 -1.89971 -1.84814 0 0 0 34.0003 pippo 34.0003
ODOM -0.264541 -1.89971 -1.84814 0 0 0 34.2403 pippo 34.2403
ODOM -0.264541 -1.89971 -1.84814 0 0 0 34.3603 pippo 34.3603
ODOM -0.264541 -1.89971 -1.84814 0 0 0 34.5213 pippo 34.5213
ODOM -0.264541 -1.89971 -1.84814 0 0 0 34.6003 pippo 34.6003
ODOM -0.264541 -1.89971 -1.84814 0 0 0 34.7603 pippo 34.7603
ODOM -0.264541 -1.89971 -1.84814 0 0 0 34.9213 pippo 34.9213
ODOM -0.264541 -1.89971 -1.84814 0 0 0 35.0803 pippo 35.0803
ODOM -0.265343 -1.90261 -1.83637 0 0 0 35.2403 pippo 35.2403
ODOM -0.267947 -1.91299 -1.79413 0 0 0 35.3903 pippo 35.3903
ODOM -0.272111 -1.93592 -1.69428 0 0 0 35.6303 pippo 35.6303
ODOM -0.273068 -1.97609 -1.46069 0 0 0 35.7203 pippo 35.7203
FLASER 180 1.67 1.67 1.72 1.67 1.72 1.67 1.72 1.72 1.72 1.72 1.72 1.77 1.69 1.74 1.77 1.74 1.82 1.82 1.79 1.79 1.84 1.84 1.84 1.89 1.94 1.94 1.94 1.99 1.99 1.99 2.09 2.04 2.09 2.09 2.14 2.19 2.19 2.24 2.29 2.34 2.39 2.44 2.49 2.49 2.59 2.64 2.69 2.74 2.76 2.86 2.91 3.01 3.11 3.21 3.26 3.41 3.51 3.61 3.81 3.91 4.01 4.21 4.36 4.61 4.81 5.06 5.36 5.66 6.01 7.76 8.06 8.66 9.31 10.69 11.01 10.91 11.21 11.11 11.21 11.36 20.11 20.11 38.91 41.56 45.26 45.21 50 50 20.11 10.56 10.56 10.41 10.26 10.36 10.51 9.61 8.86 8.21 7.61 7.11 6.66 6.31 6.01 5.71 5.36 5.16 4.96 4.71 4.51 4.36 4.21 4.01 3.91 3.76 3.66 3.56 3.46 3.36 3.31 3.21 3.11 3.01 2.96 2.91 2.89 2.76 2.74 2.69 2.64 2.64 2.54 2.54 2.49 2.39 2.39 2.34 2.34 2.29 2.24 2.19 2.24 2.24 2.14 2.09 2.09 2.09 2.09 2.04 2.04 1.99 1.99 1.99 1.99 1.94 1.94 1.94 1.89 1.89 1.89 1.84 1.87 1.87 1.92 1.84 1.87 1.92 1.87 1.87 1.82 1.87 1.82 1.82 1.82 1.82 1.82 1.87 1.82 1.87 1.87 1.82 -0.230123 -1.92897 -1.48881 -0.230123 -1.92897 -1.48881 35.7203 pippo 35.7203
ODOM -0.230123 -1.92897 -1.48881 0 0 0 0 pippo 0
NEFF 29.5037
ODOM -0.228 -1.94554 -1.3625 0 0 0 35.8713 pippo 35.8713
ODOM -0.226679 -1.95117 -1.27989 0 0 0 36.0313 pippo 36.0313
ODOM -0.227463 -1.94894 -1.21347 0 0 0 36.2803 pippo 36.2803
ODOM -0.229931 -1.94301 -1.10776 0 0 0 36.4003 pippo 36.4003
ODOM -0.230706 -1.94157 -0.998663 0 0 0 36.5903 pippo 36.5903
ODOM -0.230225 -1.94222 -0.882439 0 0 0 36.7203 pippo 36.7203
FLASER 180 2.24 2.29 2.29 2.34 2.39 2.44 2.49 2.49 2.59 2.64 2.69 2.74 2.84 2.86 2.91 3.01 3.06 3.16 3.31 3.36 3.51 3.61 3.71 3.86 4.01 4.21 4.36 4.51 4.76 4.96 5.21 5.51 5.86 6.11 7.84 8.31 8.91 10.69 10.69 11.01 10.96 11.06 10.91 11.21 12.16 20.06 20.06 22.56 41.61 45.26 45.16 50 20.66 10.96 10.56 10.56 10.31 10.26 10.41 10.16 9.26 8.56 7.91 7.36 6.91 6.46 6.11 5.81 5.46 5.21 4.96 4.71 4.61 4.41 4.26 4.06 3.96 3.81 3.66 3.56 3.46 3.36 3.26 3.21 3.11 3.06 2.96 2.94 2.84 2.84 2.74 2.69 2.69 2.59 2.54 2.49 2.44 2.44 2.39 2.34 2.29 2.29 2.24 2.19 2.19 2.14 2.19 2.09 2.09 2.09 2.04 1.99 2.04 2.04 1.99 1.99 1.94 1.94 1.89 1.89 1.89 1.89 1.89 1.84 1.84 1.84 1.84 1.79 1.79 1.84 1.84 1.79 1.79 1.79 1.79 1.82 1.82 1.82 1.82 1.79 1.82 1.82 1.82 1.82 1.84 1.82 1.82 1.87 1.82 1.87 1.79 1.84 1.84 1.84 1.84 1.89 1.84 1.89 1.89 1.89 1.89 1.94 1.94 1.99 1.99 2 2.05 2.01 5.66 5.56 5.36 5.26 5.36 5.76 5.91 50 50 6.16 6.16 6.01 -0.197086 -1.887 -0.877752 -0.197086 -1.887 -0.877752 36.7203 pippo 36.7203
ODOM -0.197086 -1.887 -0.877752 0 0 0 0 pippo 0
NEFF 29.1091
ODOM -0.195307 -1.88883 -0.688588 0 0 0 36.8303 pippo 36.8303
ODOM -0.194622 -1.88936 -0.582023 0 0 0 37.0813 pippo 37.0813
ODOM -0.194299 -1.88956 -0.479035 0 0 0 37.2003 pippo 37.2003
ODOM -0.194653 -1.88941 -0.343252 0 0 0 37.3103 pippo 37.3103
FLASER 180 4.71 4.96 5.21 5.51 5.86 6.16 7.86 8.21 8.91 9.51 10.71 11.01 11.01 10.96 10.91 11.31 11.61 20.11 20.11 22.36 44.36 45.26 44.66 50 50 20.11 10.56 10.56 10.26 10.26 10.36 10.26 9.36 8.56 7.91 7.41 6.91 6.46 6.06 5.81 5.46 5.26 5.01 4.76 4.56 4.41 4.21 4.06 3.91 3.81 3.66 3.56 3.46 3.36 3.26 3.21 3.11 2.96 2.91 2.86 2.79 2.79 2.69 2.69 2.59 2.54 2.54 2.44 2.44 2.39 2.34 2.29 2.29 2.24 2.19 2.19 2.19 2.14 2.14 2.09 2.09 2.09 2.04 1.99 1.99 1.99 1.94 1.89 1.89 1.89 1.89 1.89 1.89 1.89 1.84 1.84 1.84 1.84 1.79 1.79 1.79 1.79 1.79 1.79 1.79 1.74 1.79 1.79 1.77 1.74 1.79 1.74 1.74 1.74 1.77 1.74 1.79 1.74 1.79 1.74 1.79 1.79 1.79 1.79 1.79 1.84 1.84 1.79 1.84 1.84 1.89 1.89 1.89 1.94 1.89 1.94 1.94 1.97 2.02 2.02 5.71 5.51 5.36 5.26 5.26 5.71 5.86 50 50 6.16 6.16 6.01 5.91 5.86 5.71 3.96 3.91 3.81 3.76 3.66 3.61 3.61 3.56 3.46 3.46 3.41 3.39 3.34 3.26 3.41 3.46 3.56 3.71 3.86 3.96 4.11 4.31 4.06 4.06 4.16 -0.173299 -1.85564 -0.390127 -0.173299 -1.85564 -0.390127 37.3103 pippo 37.3103
ODOM -0.173299 -1.85564 -0.390127 0 0 0 0 pippo 0
NEFF 29.1369
ODOM -0.174948 -1.85525 -0.196967 0 0 0 37.5113 pippo 37.5113
ODOM -0.174916 -1.85525 -0.179526 0 0 0 37.6703 pippo 37.6703
ODOM -0.177009 -1.85497 -0.0798939 0 0 0 37.7503 pippo 37.7503
ODOM -0.178989 -1.85489 -0.00128894 0 0 0 37.9103 pippo 37.9103
ODOM -0.180267 -1.85492 0.0586161 0 0 0 38.1503 pippo 38.1503
ODOM -0.180236 -1.85491 0.145212 0 0 0 38.3103 pippo 38.3103
FLASER 180 8.51 7.86 7.26 6.81 6.46 6.06 5.76 5.46 5.21 5.01 4.71 4.51 4.36 4.21 4.06 3.96 3.76 3.66 3.56 3.41 3.36 3.26 3.16 3.06 3.01 2.96 2.86 2.84 2.79 2.69 2.64 2.59 2.54 2.49 2.49 2.44 2.39 2.34 2.34 2.29 2.24 2.19 2.19 2.19 2.14 2.09 2.09 2.04 2.04 1.99 2.04 1.94 1.99 1.94 1.94 1.89 1.89 1.89 1.84 1.89 1.89 1.84 1.84 1.79 1.79 1.79 1.79 1.79 1.84 1.82 1.79 1.82 1.82 1.82 1.82 1.77 1.79 1.82 1.79 1.77 1.79 1.82 1.77 1.77 1.79 1.79 1.79 1.82 1.79 1.79 1.79 1.84 1.79 1.84 1.84 1.84 1.84 1.89 1.89 1.89 1.94 1.94 1.89 1.97 1.97 2.02 5.76 5.66 5.41 5.31 5.21 5.31 5.71 5.96 50 6.21 6.11 6.11 5.96 5.91 5.71 5.71 3.91 3.81 3.76 3.71 3.66 3.61 3.56 3.46 3.41 3.41 3.36 3.31 3.29 3.26 3.41 3.46 3.61 3.66 3.81 4.01 4.11 4.11 4.06 4.06 4.16 4.21 7.96 7.91 7.81 7.76 7.86 7.71 7.66 7.61 7.61 7.61 7.46 5.46 7.41 7.41 7.46 5.36 50 8.26 8.21 5.06 8.19 7.26 7.16 7.16 5.76 7.16 7.21 7.21 10.36 5.61 6.16 10.46 -0.181882 -1.85745 0.184222 -0.181882 -1.85745 0.184222 38.3103 pippo 38.3103
ODOM -0.181882 -1.85745 0.184222 0 0 0 0 pippo 0
NEFF 29.1049
ODOM -0.180822 -1.85721 0.259461 0 0 0 38.3903 pippo 38.3903
ODOM -0.178953 -1.85665 0.340802 0 0 0 38.5503 pippo 38.5503
ODOM -0.178115 -1.85634 0.397551 0 0 0 38.7903 pippo 38.7903
ODOM -0.174752 -1.85462 0.480581 0 0 0 38.9513 pippo 38.9513
ODOM -0.162617 -1.84764 0.569484 0 0 0 39.1103 pippo 39.1103
ODOM -0.120039 -1.81379 0.758439 0 0 0 39.2703 pippo 39.2703
FLASER 180 2.49 2.49 2.39 2.34 2.29 2.29 2.24 2.24 2.19 2.14 2.14 2.09 2.09 2.04 2.04 2.04 1.99 1.94 1.94 1.94 1.94 1.89 1.89 1.89 1.89 1.84 1.84 1.87 1.82 1.84 1.82 1.82 1.79 1.82 1.77 1.77 1.77 1.77 1.77 1.77 1.77 1.77 1.72 1.77 1.77 1.77 1.77 1.72 1.72 1.77 1.74 1.77 1.77 1.74 1.74 1.77 1.79 1.77 1.79 1.79 1.79 1.79 1.84 1.79 1.84 1.89 1.84 1.84 1.89 1.92 1.92 1.91 5.86 5.61 5.46 5.31 5.16 5.21 5.61 5.71 50 50 6.06 6.06 5.96 5.86 5.81 5.61 3.91 3.76 3.71 3.66 3.61 3.56 3.46 3.41 3.39 3.31 3.31 3.29 3.24 3.16 3.21 3.31 3.41 3.51 3.66 3.76 3.86 4.06 4.16 3.96 3.91 4.01 4.21 7.86 7.81 7.76 7.66 7.76 7.61 7.56 7.56 7.56 7.51 7.41 7.36 5.41 4.96 5.06 4.76 5.76 5.76 6.01 8.16 8.16 6.06 7.06 7.06 5.31 5.71 7.16 5.06 5.21 5.21 5.21 5.61 10.41 6.06 5.81 5.66 7.21 6.86 6.51 6.21 5.91 4.76 3.86 3.76 2.71 2.66 2.56 2.46 2.51 2.56 3.41 3.36 3.26 3.16 3.24 3.29 3.31 3.34 3.36 3.41 3.56 3.96 4.01 4.06 8.11 -0.142678 -1.76095 0.758447 -0.142678 -1.76095 0.758447 39.2703 pippo 39.2703
ODOM -0.142678 -1.76095 0.758447 0 0 0 0 pippo 0
NEFF 29.2874
ODOM -0.102218 -1.71484 0.930587 0 0 0 39.4703 pippo 39.4703
ODOM -0.0221384 -1.58535 1.08213 0 0 0 39.5903 pippo 39.5903
ODOM 0.0135907 -1.51366 1.12396 0 0 0 39.6703 pippo 39.6703
ODOM 0.0721411 -1.39228 1.11723 0 0 0 39.9103 pippo 39.9103
ODOM 0.118285 -1.29984 1.08759 0 0 0 40.1503 pippo 40.1503
ODOM 0.175527 -1.19638 1.04766 0 0 0 40.2703 pippo 40.2703
ODOM 0.207817 -1.14048 1.05165 0 0 0 40.3903 pippo 40.3903
ODOM 0.246971 -1.06732 1.11744 0 0 0 40.5903 pippo 40.5903
FLASER 180 1.47 1.47 1.47 1.47 1.47 1.47 1.47 1.42 1.42 1.42 1.42 1.42 1.42 1.42 1.42 1.37 1.37 1.37 1.37 1.37 1.37 1.37 1.37 1.37 1.42 1.37 1.37 1.4 1.4 1.4 1.37 16.21 14.41 12.76 11.51 10.46 10.01 8.86 8.61 7.71 7.16 6.76 2.16 2.01 2.01 2.01 1.91 1.89 1.84 1.79 1.86 4.51 4.56 4.96 4.91 1.81 50 50 5.31 5.36 5.21 5.16 5.06 3.11 3.06 2.96 2.94 2.89 2.84 2.74 2.69 2.69 2.64 2.54 2.54 2.49 2.49 2.39 2.39 2.39 2.39 2.54 2.56 2.61 2.71 2.81 2.91 3.01 3.11 3.21 3.36 3.36 3.16 3.06 3.11 3.31 6.96 6.91 6.91 6.91 6.91 6.81 6.81 6.76 6.71 6.71 6.76 6.61 6.56 6.56 6.61 4.31 4.11 4.01 4.01 3.96 3.96 4.56 5.06 4.16 5.31 6.46 6.46 6.46 5.01 5.01 5.66 4.66 4.36 4.36 4.46 4.51 4.56 4.57 5.21 5.11 5.46 6.36 6.11 5.86 5.71 5.46 5.26 5.06 4.26 4.16 4.06 3.61 3.36 3.41 3.31 3.16 3.16 3.41 3.31 2.26 2.29 2.29 2.36 2.16 2.14 2.11 2.51 2.94 2.96 3.06 3.11 3.16 3.26 3.86 3.96 7.31 7.26 7.16 7.06 7.01 6.96 4.46 6.86 6.81 0.285873 -1.06107 1.12369 0.285873 -1.06107 1.12369 40.5903 pippo 40.5903
ODOM 0.285873 -1.06107 1.12369 0 0 0 0 pippo 0
NEFF 28.542
ODOM 0.326446 -0.971578 1.14408 0 0 0 40.7513 pippo 40.7513
ODOM 0.353135 -0.918901 1.00494 0 0 0 40.9003 pippo 40.9003
ODOM 0.36286 -0.904637 0.919602 0 0 0 41.2303 pippo 41.2303
ODOM 0.36014 -0.910513 1.13126 0 0 0 41.3803 pippo 41.3803
ODOM 0.356569 -0.918997 1.23215 0 0 0 41.5403 pippo 41.5403
FLASER 180 1.37 1.37 1.37 1.32 1.42 1.37 1.32 1.37 1.32 1.37 1.37 1.32 1.32 1.32 1.32 1.32 1.3 1.32 1.32 1.32 1.29 30.01 1.31 1.11 1.14 1.14 1.14 1.01 0.96 0.94 0.94 0.96 1.01 7.46 6.96 6.56 6.16 5.86 5.51 5.31 1.31 4.86 4.61 4.41 4.36 4.46 4.81 4.86 4.91 50 50 5.46 5.21 5.16 5.06 5.01 3.06 2.96 2.86 2.81 2.79 2.69 2.64 2.59 2.54 2.49 2.49 2.44 2.39 2.34 2.34 2.29 2.24 2.24 2.29 2.39 2.44 2.54 2.51 2.61 2.71 2.86 2.91 3.01 3.16 3.26 3.01 3.01 2.96 3.06 3.21 6.86 6.76 6.81 6.76 6.76 6.66 6.66 6.61 6.61 6.56 6.61 6.46 6.46 6.46 4.11 4.31 4.11 3.96 3.91 3.86 3.91 4.96 5.01 6.91 6.26 6.26 6.26 6.31 4.96 4.91 5.61 5.71 4.31 4.26 4.31 4.36 4.46 4.44 4.51 5.11 5.06 6.36 6.11 5.91 5.71 5.51 5.26 5.11 4.31 4.21 4.11 3.96 3.86 3.31 3.31 3.26 3.11 3.11 3.31 3.26 3.26 2.26 2.19 2.24 2.26 2.16 2.11 2.11 2.16 2.86 3.01 3.06 3.11 3.21 3.36 3.91 7.21 7.16 7.11 7.06 7.01 6.91 4.41 6.81 6.76 6.71 6.66 5.46 5.46 0.346142 -0.963768 1.22947 0.346142 -0.963768 1.22947 41.5403 pippo 41.5403
ODOM 0.346142 -0.963768 1.22947 0 0 0 0 pippo 0
NEFF 28.5681
ODOM 0.34547 -0.965706 1.30976 0 0 0 41.7013 pippo 41.7013
ODOM 0.346143 -0.962648 1.39341 0 0 0 41.9403 pippo 41.9403
ODOM 0.347029 -0.954292 1.55673 0 0 0 42.0203 pippo 42.0203
ODOM 0.347013 -0.951472 1.63912 0 0 0 42.2603 pippo 42.2603
ODOM 0.346963 -0.950742 1.67128 0 0 0 42.3413 pippo 42.3413
ODOM 0.347208 -0.952353 1.76985 0 0 0 42.4223 pippo 42.4223
FLASER 180 16.31 14.26 12.56 11.21 10.21 9.81 8.81 7.86 7.41 6.91 6.51 6.16 5.86 5.51 5.31 5.06 4.81 4.56 4.41 4.41 4.46 4.81 4.86 5.01 50 50 5.26 5.21 5.26 5.06 5.01 2.91 2.91 2.86 2.79 2.69 2.69 2.64 2.64 2.54 2.49 2.49 2.39 2.39 2.34 2.29 2.29 2.29 2.29 2.34 2.44 2.46 2.56 2.61 2.71 2.81 2.86 3.01 3.06 3.16 3.01 2.96 3.06 3.06 3.21 6.91 6.86 6.81 6.76 6.81 6.66 6.66 6.66 6.61 6.61 6.61 6.61 6.46 6.46 6.41 4.51 6.46 6.46 6.51 4.41 3.91 7.31 7.41 7.46 4.01 5.21 6.26 6.31 6.31 4.91 4.91 6.41 9.56 5.51 7.56 7.01 5.41 4.86 7.51 4.71 5.71 6.61 6.31 6.11 5.86 5.66 5.46 5.26 5.11 4.31 4.16 4.06 3.96 3.66 3.26 3.31 3.16 3.11 3.01 3.31 3.26 3.21 2.21 2.24 2.19 2.26 2.16 2.04 2.06 2.11 2.86 2.86 3.01 3.06 3.16 3.31 3.86 7.26 7.21 7.11 7.01 7.01 6.91 4.31 6.81 6.76 6.71 5.76 5.51 5.41 6.46 6.21 6.36 6.56 7.41 7.46 50 1.99 1.99 1.99 1.96 13.56 1.91 1.86 1.89 1.89 1.96 26.46 2.41 2.17 2.17 2.17 2.17 2.17 2.17 0.322722 -0.925752 1.65786 0.322722 -0.925752 1.65786 42.4223 pippo 42.4223
ODOM 0.322722 -0.925752 1.65786 0 0 0 0 pippo 0
NEFF 28.3555
ODOM 0.322749 -0.926067 1.65786 0 0 0 42.6603 pippo 42.6603
ODOM 0.32295 -0.927621 1.73542 0 0 0 42.7803 pippo 42.7803
ODOM 0.322038 -0.923537 1.8134 0 0 0 42.9003 pippo 42.9003
ODOM 0.317948 -0.910212 1.91176 0 0 0 43.1513 pippo 43.1513
ODOM 0.294427 -0.858454 2.08285 0 0 0 43.2703 pippo 43.2703
ODOM 0.257435 -0.800169 2.19803 0 0 0 43.3803 pippo 43.3803
FLASER 180 2.64 2.59 2.54 2.49 2.44 2.39 2.34 2.29 2.29 2.24 2.29 2.34 2.39 2.44 2.54 2.59 2.66 2.66 2.81 2.86 2.91 3.01 3.16 3.01 2.96 3.01 3.06 3.16 6.86 6.86 6.76 6.76 6.71 6.66 6.66 6.61 6.56 6.56 6.51 6.51 6.51 6.36 6.41 4.21 6.36 6.36 6.41 6.36 4.31 7.16 7.21 5.26 7.26 4.06 5.11 6.16 6.16 6.21 4.81 4.81 6.21 9.46 4.26 9.66 9.61 4.51 4.46 4.51 4.61 5.01 4.96 4.86 6.01 5.81 5.56 5.41 5.21 5.06 4.86 4.06 3.96 3.86 3.76 3.24 3.14 3.16 3.11 2.96 2.91 3.16 3.14 3.01 2.06 2.09 2.06 2.06 1.96 1.94 1.91 1.96 2.71 2.76 2.86 2.91 2.96 3.06 3.66 3.76 7.06 6.96 6.91 6.81 6.81 6.76 4.26 6.61 6.61 6.56 5.51 5.31 5.36 6.11 6.21 6.31 7.26 7.31 50 50 2.21 1.84 1.84 1.89 1.91 17.16 1.76 1.79 1.74 1.71 2.06 7.06 3.31 2.05 2.07 2.07 2.04 2.04 2.04 2.04 2.04 2.09 2.09 2.09 2.14 2.09 2.09 2.14 2.14 2.14 2.19 2.24 2.19 2.19 2.19 2.24 2.29 2.29 2.29 2.34 2.34 2.39 2.44 2.44 2.44 2.49 2.49 2.54 2.64 2.64 2.69 2.69 0.218601 -0.853114 2.26522 0.218601 -0.853114 2.26522 43.3803 pippo 43.3803
ODOM 0.218601 -0.853114 2.26522 0 0 0 0 pippo 0
NEFF 28.3457
ODOM 0.152875 -0.780931 2.34446 0 0 0 43.6203 pippo 43.6203
ODOM 0.0952763 -0.723983 2.36779 0 0 0 43.7023 pippo 43.7023
ODOM 0.0390677 -0.669545 2.37283 0 0 0 43.9403 pippo 43.9403
ODOM -0.0117848 -0.620332 2.36716 0 0 0 44.0203 pippo 44.0203
ODOM -0.0546474 -0.577814 2.34824 0 0 0 44.2603 pippo 44.2603
ODOM -0.134853 -0.496039 2.34866 0 0 0 44.4213 pippo 44.4213
ODOM -0.226181 -0.406403 2.39028 0 0 0 44.5803 pippo 44.5803
ODOM -0.290128 -0.348207 2.42139 0 0 0 44.7403 pippo 44.7403
ODOM -0.401973 -0.255633 2.48297 0 0 0 44.9803 pippo 44.9803
ODOM -0.478776 -0.197781 2.51429 0 0 0 45.0603 pippo 45.0603
ODOM -0.574726 -0.13089 2.5601 0 0 0 45.2203 pippo 45.2203
FLASER 180 7.51 50 6.71 6.61 6.56 6.46 6.41 6.36 6.41 6.26 6.21 6.21 3.51 6.11 6.06 5.96 5.91 5.86 3.86 5.81 5.81 5.81 5.81 3.26 50 3.91 6.71 6.66 6.61 5.51 5.46 3.91 4.01 4.56 3.46 5.46 5.46 6.81 3.86 8.61 8.61 3.86 3.56 8.66 8.71 7.01 4.61 4.21 5.71 5.41 5.16 4.91 4.66 4.36 4.21 3.21 3.06 2.91 2.31 2.19 2.14 2.11 2.01 2.01 1.81 1.89 2.24 2.19 1.01 1.04 0.99 1.04 1.04 1.04 1.06 1.89 0.96 0.91 0.91 0.86 0.84 0.89 0.89 0.91 1.69 1.74 1.74 1.79 1.84 1.89 1.94 1.99 2.11 2.66 5.91 5.86 5.81 5.76 5.71 5.71 5.66 5.66 3.26 5.56 5.56 5.51 4.51 4.31 4.31 5.16 5.21 5.41 6.41 6.46 20.31 8.91 11.61 11.56 16.31 19.86 25.71 25.66 25.56 19.91 19.91 13.71 10.36 8.41 7.16 6.34 5.36 4.96 4.91 3.96 3.66 3.41 3.16 2.96 2.76 1.16 1.11 1.09 1.14 1.14 1.19 1.21 1.89 1.79 1.21 1.11 1.14 1.09 1.14 1.09 1.16 1.47 1.52 1.54 1.54 1.54 1.59 1.59 1.64 1.64 1.64 1.69 1.74 1.74 1.79 1.84 1.89 1.89 1.94 1.99 2.04 2.04 2.14 2.19 2.29 2.29 -0.606249 -0.181859 2.55765 -0.606249 -0.181859 2.55765 45.2203 pippo 45.2203
ODOM -0.606249 -0.181859 2.55765 0 0 0 0 pippo 0
NEFF 28.33
ODOM -0.67632 -0.137785 2.60326 0 0 0 45.3803 pippo 45.3803
ODOM -0.735242 -0.105462 2.67599 0 0 0 45.5403 pippo 45.5403
ODOM -0.79402 -0.0777807 2.73274 0 0 0 45.7403 pippo 45.7403
ODOM -0.839971 -0.0588695 2.77267 0 0 0 45.8603 pippo 45.8603
ODOM -0.887051 -0.040711 2.76616 0 0 0 45.9803 pippo 45.9803
ODOM -0.916634 -0.0280856 2.68986 0 0 0 46.2203 pippo 46.2203
ODOM -0.937237 -0.016876 2.55702 0 0 0 46.3403 pippo 46.3403
ODOM -0.939046 -0.0156711 2.52675 0 0 0 46.5803 pippo 46.5803
ODOM -0.93668 -0.0173653 2.50826 0 0 0 46.6903 pippo 46.6903
ODOM -0.935248 -0.0184386 2.48619 0 0 0 46.9303 pippo 46.9303
FLASER 180 7.56 11.01 6.66 6.66 6.56 6.46 6.41 6.36 6.41 3.56 6.11 6.16 3.06 6.01 6.01 5.86 3.66 5.81 4.51 3.21 5.71 5.71 5.71 3.81 50 50 50 4.46 3.76 5.31 3.91 3.96 4.91 5.31 5.26 5.26 5.26 6.36 6.46 6.46 4.19 6.51 6.01 8.46 8.46 4.31 3.76 6.06 5.61 5.26 4.91 4.61 4.36 4.06 2.86 1.91 1.84 0.96 0.71 0.69 0.69 0.69 0.69 0.69 0.74 0.69 0.71 0.76 0.71 0.56 0.56 0.51 0.51 0.54 0.54 0.49 0.51 0.56 0.56 0.56 0.89 1.29 1.24 1.29 1.29 1.34 1.34 1.39 1.39 1.44 1.49 1.54 1.59 1.64 1.61 2.16 2.31 5.61 5.51 5.46 5.46 5.36 5.31 5.31 5.26 5.21 2.81 5.16 5.16 5.11 4.06 4.06 3.96 3.96 4.76 4.91 5.16 6.01 19.86 8.56 8.76 11.16 13.31 19.51 25.46 25.31 25.31 19.61 19.61 14.76 11.26 9.46 8.11 7.06 6.26 6.01 5.06 4.66 4.61 4.51 3.66 3.46 3.31 3.06 2.96 2.76 2.66 2.51 2.41 2.36 2.21 2.16 2.11 2.04 1.99 1.89 1.84 1.79 0.91 0.91 0.91 0.89 0.89 0.89 0.91 0.91 1.44 1.39 1.34 0.96 0.99 0.94 0.99 0.99 0.94 0.96 1.06 1.49 1.49 1.54 -0.956894 0.00612128 2.49276 -0.956894 0.00612128 2.49276 46.9303 pippo 46.9303
ODOM -0.956894 0.00612128 2.49276 0 0 0 0 pippo 0
NEFF 27.6188
ODOM -0.955952 0.0054042 2.47153 0 0 0 47.0903 pippo 47.0903
ODOM -0.956747 0.0060486 2.43958 0 0 0 47.2503 pippo 47.2503
ODOM -0.957662 0.00684856 2.39965 0 0 0 47.4103 pippo 47.4103
ODOM -0.95842 0.00753638 2.32945 0 0 0 47.6503 pippo 47.6503
ODOM -0.958618 0.00774549 2.32461 0 0 0 47.8113 pippo 47.8113
ODOM -0.958792 0.0079325 2.31326 0 0 0 47.9703 pippo 47.9703
ODOM -0.959198 0.00838522 2.28573 0 0 0 48.1303 pippo 48.1303
ODOM -0.960195 0.00959427 2.23781 0 0 0 48.2913 pippo 48.2913
ODOM -0.961169 0.0109014 2.17013 0 0 0 48.4503 pippo 48.4503
ODOM -0.96195 0.0121478 2.04864 0 0 0 48.6103 pippo 48.6103
ODOM -0.96257 0.013485 1.67914 0 0 0 48.8103 pippo 48.8103
FLASER 180 6.91 6.06 5.41 5.26 5.31 5.61 5.66 3.56 3.26 3.11 2.91 2.71 2.69 2.64 2.74 2.74 2.79 2.79 2.74 2.84 2.89 2.89 2.89 2.94 2.99 2.99 3.04 3.04 3.06 3.06 2.91 2.91 2.96 3.06 3.06 3.11 3.11 3.51 3.56 3.61 3.71 3.86 4.26 7.31 7.16 5.06 7.06 7.26 7.41 7.56 11.11 6.66 6.56 6.51 6.41 6.31 6.26 6.21 3.46 6.06 6.06 3.01 6.01 6.01 5.81 3.61 5.71 4.36 3.06 5.71 5.66 4.71 3.81 50 6.61 50 4.26 6.61 3.81 3.86 3.06 4.96 5.26 5.21 5.21 5.21 4.01 6.41 6.46 4.17 3.54 6.41 5.86 8.41 8.41 4.26 3.71 5.81 5.41 5.11 4.81 4.51 4.26 4.06 2.86 2.31 1.89 1.79 1.89 1.66 1.71 0.86 0.71 0.74 0.69 0.69 0.74 0.74 0.74 0.71 0.71 0.81 1.59 1.59 0.76 0.71 0.71 0.66 0.66 0.71 0.71 0.71 0.86 1.24 1.29 1.29 1.34 1.34 1.39 1.44 1.44 1.49 1.54 1.54 1.64 1.64 1.76 2.31 5.56 5.51 5.46 5.41 5.41 5.36 5.31 5.31 5.26 2.91 5.21 3.66 3.81 4.01 3.99 3.96 4.76 4.91 5.11 6.06 19.81 8.61 8.61 11.21 13.41 19.51 50 25.31 25.36 19.66 19.66 13.16 -0.9281 0.0980014 1.62914 -0.9281 0.0980014 1.62914 48.8103 pippo 48.8103
ODOM -0.9281 0.0980014 1.62914 0 0 0 0 pippo 0
NEFF 27.7053
ODOM -0.928168 0.0967914 1.31933 0 0 0 49.0103 pippo 49.0103
ODOM -0.928518 0.0956967 1.15791 0 0 0 49.1303 pippo 49.1303
ODOM -0.928766 0.0952131 1.02697 0 0 0 49.2603 pippo 49.2603
FLASER 180 2.74 2.74 2.7 2.72 2.81 2.96 3.16 3.31 3.51 3.76 4.01 4.36 4.66 5.11 5.61 6.21 7.01 7.96 9.06 11.11 14.01 19.66 25.51 31.21 31.21 31.21 31.26 14.31 11.01 8.91 7.66 6.66 5.86 5.26 5.26 5.51 5.56 3.71 3.41 3.21 3.01 2.81 2.66 2.69 2.64 2.69 2.69 2.74 2.74 2.79 2.79 2.84 2.84 2.89 2.89 2.99 2.99 3.04 3.04 3.06 3.01 2.91 2.91 3.01 3.01 3.06 3.11 3.11 3.51 3.56 3.61 3.66 4.21 7.36 7.26 7.11 4.76 7.16 7.31 7.46 10.96 6.66 6.56 6.56 6.41 6.41 6.31 6.36 6.16 3.51 6.06 6.06 2.91 6.01 5.81 5.81 5.76 4.16 5.71 3.36 5.66 5.71 4.56 3.91 50 50 4.31 50 5.46 5.26 3.81 3.06 5.21 5.21 5.21 5.26 4.61 3.81 6.46 6.56 3.56 6.41 5.76 8.41 8.46 4.31 6.41 5.91 5.51 5.16 4.86 4.56 4.36 4.11 2.96 2.81 2.01 1.94 1.84 1.84 1.71 1.71 1.56 1.59 0.81 0.76 0.74 0.79 0.74 0.79 0.74 0.76 0.81 0.96 0.96 0.96 0.94 0.94 0.94 0.96 1.01 1.34 1.34 1.29 1.29 1.34 1.34 1.34 1.39 1.44 1.49 1.49 1.54 1.64 1.64 1.74 2.21 2.36 5.56 5.46 -0.835767 0.0453988 1.13634 -0.835767 0.0453988 1.13634 49.2603 pippo 49.2603
ODOM -0.835767 0.0453988 1.13634 0 0 0 0 pippo 0
NEFF 27.1387
ODOM -0.835738 0.0454553 1.10481 0 0 0 49.3803 pippo 49.3803
ODOM -0.835425 0.0460498 1.06677 0 0 0 49.6103 pippo 49.6103
ODOM -0.834428 0.0477623 1.02011 0 0 0 49.7303 pippo 49.7303
ODOM -0.83275 0.0503717 0.980805 0 0 0 49.9703 pippo 49.9703
ODOM -0.829483 0.0547952 0.886223 0 0 0 50.1303 pippo 50.1303
ODOM -0.827636 0.056959 0.83599 0 0 0 50.2903 pippo 50.2903
ODOM -0.825662 0.0590536 0.79101 0 0 0 50.4503 pippo 50.4503
ODOM -0.811824 0.0716769 0.683817 0 0 0 50.6903 pippo 50.6903
ODOM -0.782274 0.0924621 0.515459 0 0 0 50.8503 pippo 50.8503
FLASER 180 5.26 5.16 4.96 4.81 4.71 4.56 4.41 4.26 4.21 4.11 4.01 3.86 3.81 3.76 3.66 3.56 3.56 3.46 3.41 3.36 3.26 3.26 3.21 3.16 3.06 3.09 2.99 2.99 2.94 2.94 2.94 2.84 2.79 2.79 2.74 2.74 2.74 2.69 2.69 2.64 2.67 2.62 2.67 2.81 2.91 3.11 3.26 3.46 3.66 3.96 4.26 4.51 4.96 5.36 5.91 6.56 7.41 8.51 10.16 12.16 15.01 20.36 25.41 31.11 31.11 31.11 17.11 13.01 10.36 8.51 7.21 6.31 5.56 5.11 5.16 5.46 5.51 3.56 3.31 3.11 2.91 2.71 2.61 2.54 2.59 2.59 2.64 2.64 2.64 2.64 2.69 2.74 2.69 2.79 2.79 2.79 2.84 2.89 2.94 2.94 2.99 3.04 2.86 2.86 2.81 2.86 2.91 2.96 2.96 3.41 3.41 3.51 3.61 4.26 6.06 7.06 6.96 4.66 7.11 7.31 7.46 10.86 6.56 6.51 6.41 6.36 6.26 6.21 6.26 6.11 6.06 3.41 6.01 3.31 3.11 3.06 5.76 3.56 5.66 5.66 5.66 3.16 4.41 4.26 3.76 50 6.46 50 6.61 6.46 3.41 5.21 3.81 4.16 3.46 3.31 5.26 5.01 4.26 3.36 4.56 4.16 3.86 6.71 5.81 8.41 3.86 3.91 4.01 5.66 5.36 5.06 4.76 4.51 4.31 4.11 3.91 2.91 2.76 2.31 -0.727537 0.105233 0.435772 -0.727537 0.105233 0.435772 50.8503 pippo 50.8503
ODOM -0.727537 0.105233 0.435772 0 0 0 0 pippo 0
NEFF 26.2044
ODOM -0.669895 0.125363 0.211925 0 0 0 50.9303 pippo 50.9303
ODOM -0.599564 0.134802 0.0336876 0 0 0 51.1703 pippo 51.1703
ODOM -0.490979 0.131605 -0.0753934 0 0 0 51.3303 pippo 51.3303
FLASER 180 43.76 47.31 50 50 39.91 22.11 12.61 12.61 12.31 12.31 12.41 11.86 10.81 9.96 9.26 8.61 8.11 7.61 7.21 6.81 6.56 6.26 5.91 5.71 5.41 5.26 5.01 4.86 4.71 4.56 4.41 4.26 4.16 4.06 3.96 3.81 3.71 3.61 3.56 3.46 3.41 3.31 3.26 3.21 3.16 3.09 3.09 3.04 2.99 2.94 2.89 2.84 2.84 2.74 2.74 2.64 2.64 2.64 2.54 2.54 2.54 2.49 2.49 2.44 2.44 2.47 2.42 2.44 2.56 2.66 2.81 2.96 3.11 3.26 3.46 3.66 3.96 4.21 4.56 4.91 5.41 5.86 6.56 7.46 8.51 9.91 11.86 14.76 20.06 25.16 30.86 30.81 30.81 17.21 13.21 10.61 8.51 7.21 6.31 5.56 4.91 4.91 4.91 5.26 5.26 3.26 3.06 2.86 2.71 2.61 2.46 2.36 2.34 2.34 2.39 2.39 2.44 2.39 2.44 2.49 2.49 2.49 2.54 2.54 2.59 2.64 2.69 2.69 2.74 2.74 2.76 2.71 2.61 2.66 2.71 2.71 2.76 2.81 2.86 3.21 3.31 3.41 3.46 4.36 6.86 6.81 4.51 7.16 7.26 50 50 6.36 6.36 6.26 6.16 6.11 6.06 6.01 6.01 5.96 5.91 3.36 5.86 5.76 5.66 2.86 5.61 5.61 5.56 4.06 5.56 5.56 6.06 4.41 3.71 6.41 6.36 6.36 4.21 5.16 -0.497093 0.0931517 -0.0332059 -0.497093 0.0931517 -0.0332059 51.3303 pippo 51.3303
ODOM -0.497093 0.0931517 -0.0332059 0 0 0 0 pippo 0
NEFF 26.0351
ODOM -0.430854 0.0905539 -0.0363629 0 0 0 51.4103 pippo 51.4103
ODOM -0.351321 0.088693 -0.000201868 0 0 0 51.6503 pippo 51.6503
ODOM -0.275817 0.0903331 0.0466671 0 0 0 51.7703 pippo 51.7703
ODOM -0.188756 0.0947239 0.0468771 0 0 0 51.9713 pippo 51.9713
ODOM -0.10107 0.0979169 0.0241711 0 0 0 52.0903 pippo 52.0903
ODOM 0.00742088 0.0987613 -0.0138669 0 0 0 52.3313 pippo 52.3313
ODOM 0.114479 0.0951307 -0.0517059 0 0 0 52.4503 pippo 52.4503
ODOM 0.247352 0.086517 -0.0748209 0 0 0 52.6903 pippo 52.6903
ODOM 0.337371 0.0793353 -0.0798659 0 0 0 52.8003 pippo 52.8003
ODOM 0.451247 0.0704347 -0.0685179 0 0 0 53.0403 pippo 53.0403
ODOM 0.604088 0.060355 -0.0638929 0 0 0 53.2003 pippo 53.2003
FLASER 180 46.41 47.21 12.56 22.06 12.16 12.16 12.21 11.06 9.41 8.16 7.21 6.51 5.91 5.41 5.01 4.61 4.36 4.06 3.81 3.61 3.41 3.21 3.01 2.91 2.81 2.71 2.61 2.51 2.41 2.29 2.29 2.19 2.09 2.04 1.99 1.94 1.89 1.84 1.79 1.79 1.69 1.69 1.64 1.59 1.59 1.54 1.54 1.55 1.5 1.45 1.5 1.5 1.54 1.54 1.59 1.64 1.69 1.79 1.79 1.79 1.89 1.94 1.99 2.09 2.14 2.16 2.26 2.36 2.46 2.56 2.66 2.81 2.96 3.11 3.31 3.46 3.66 3.91 4.21 4.51 4.91 5.36 5.81 6.56 7.41 8.81 9.86 11.91 18.06 21.06 24.06 29.76 29.71 29.71 16.91 13.16 10.31 8.36 7.26 6.26 5.56 5.01 4.56 4.11 3.76 3.81 3.86 4.16 4.16 4.21 4.21 4.36 50 2.21 2.11 2.06 1.96 1.91 1.84 1.79 1.74 1.69 1.64 1.54 1.54 1.44 1.44 1.39 1.39 1.34 1.34 1.39 1.39 1.39 1.44 1.44 1.49 1.54 1.54 1.59 1.59 1.64 1.69 1.74 1.74 1.79 1.84 1.89 1.94 1.99 2.04 2.09 2.14 2.11 1.96 2.01 2.01 2.01 2.01 2.06 2.19 2.19 5.91 5.86 5.86 5.81 5.71 5.71 5.71 5.66 5.61 5.61 5.56 5.56 5.56 5.56 5.46 5.46 5.41 5.41 0.550299 0.0219735 -0.0388929 0.550299 0.0219735 -0.0388929 53.2003 pippo 53.2003
ODOM 0.550299 0.0219735 -0.0388929 0 0 0 0 pippo 0
NEFF 26.022
ODOM 0.666961 0.0174301 -0.0370049 0 0 0 53.2803 pippo 53.2803
ODOM 0.782682 0.011923 -0.0573929 0 0 0 53.4403 pippo 53.4403
ODOM 0.90491 0.00366908 -0.0731559 0 0 0 53.6803 pippo 53.6803
ODOM 1.0226 -0.00608635 -0.0882899 0 0 0 53.7603 pippo 53.7603
ODOM 1.08773 -0.0122357 -0.0981689 0 0 0 53.9203 pippo 53.9203
ODOM 1.17754 -0.0217647 -0.112453 0 0 0 54.0803 pippo 54.0803
ODOM 1.26414 -0.0319306 -0.116868 0 0 0 54.3203 pippo 54.3203
ODOM 1.33276 -0.0401534 -0.121284 0 0 0 54.4013 pippo 54.4013
ODOM 1.40023 -0.0487664 -0.130324 0 0 0 54.6403 pippo 54.6403
ODOM 1.48194 -0.0599146 -0.138095 0 0 0 54.7203 pippo 54.7203
ODOM 1.55654 -0.0706462 -0.14335 0 0 0 54.9603 pippo 54.9603
FLASER 180 22.11 22.16 50 50 12.61 12.41 12.11 12.11 12.26 5.01 2.86 1.96 1.41 1.21 0.91 0.92 0.92 0.92 0.97 0.92 0.9 0.84 0.89 0.89 0.89 0.89 0.94 0.94 0.89 0.94 0.94 0.94 0.99 0.94 0.99 0.99 0.99 1.04 1.04 0.99 1.04 1.04 1.09 1.04 1.04 1.09 1.09 1.09 1.19 1.19 1.19 1.24 1.19 1.24 1.24 1.29 1.34 1.34 1.34 1.39 1.44 1.49 1.49 1.54 1.54 1.64 1.64 1.74 1.74 1.84 1.89 1.94 2.04 2.09 2.16 2.21 2.36 2.46 2.56 2.66 2.86 3.01 3.16 3.41 3.61 3.86 4.16 4.56 4.96 5.56 6.16 6.96 7.91 9.41 11.61 17.26 20.21 23.11 28.76 28.81 28.76 28.81 13.61 10.71 8.91 7.61 7.36 6.01 5.36 4.86 4.51 4.16 3.86 3.66 3.41 3.21 2.96 2.89 2.94 2.94 3.29 3.29 3.29 3.34 3.36 3.71 3.76 3.81 3.91 3.76 3.71 3.66 3.66 3.51 3.46 3.41 3.41 1.46 1.39 1.39 1.34 1.34 1.29 1.29 1.24 1.24 1.24 1.19 1.19 1.14 1.14 1.14 1.09 1.09 1.09 1.09 1.04 1.04 1.04 1.04 0.99 1.04 0.99 0.99 0.94 0.94 0.94 0.94 0.94 0.94 0.94 0.94 0.94 0.94 0.94 0.94 0.89 0.89 0.89 0.89 1.52341 -0.0781847 -0.158975 1.52341 -0.0781847 -0.158975 54.9603 pippo 54.9603
ODOM 1.52341 -0.0781847 -0.158975 0 0 0 0 pippo 0
NEFF 25.7279
ODOM 1.6014 -0.0913166 -0.17222 0 0 0 55.0403 pippo 55.0403
ODOM 1.66494 -0.103104 -0.19093 0 0 0 55.2803 pippo 55.2803
ODOM 1.76731 -0.12516 -0.23738 0 0 0 55.5203 pippo 55.5203
ODOM 1.85735 -0.148406 -0.263441 0 0 0 55.7603 pippo 55.7603
ODOM 1.90485 -0.161601 -0.276467 0 0 0 55.8803 pippo 55.8803
ODOM 1.97779 -0.183118 -0.29287 0 0 0 56.1213 pippo 56.1213
ODOM 2.02855 -0.198734 -0.303168 0 0 0 56.2803 pippo 56.2803
ODOM 2.07794 -0.214892 -0.330279 0 0 0 56.4403 pippo 56.4403
ODOM 2.108 -0.225819 -0.372733 0 0 0 56.6003 pippo 56.6003
ODOM 2.1364 -0.237441 -0.397536 0 0 0 56.7603 pippo 56.7603
ODOM 2.15834 -0.246821 -0.407206 0 0 0 56.9203 pippo 56.9203
ODOM 2.19014 -0.260622 -0.39417 0 0 0 57.0813 pippo 57.0813
ODOM 2.24153 -0.280362 -0.334694 0 0 0 57.3113 pippo 57.3113
ODOM 2.34348 -0.303214 -0.121565 0 0 0 57.4803 pippo 57.4803
FLASER 180 0.69 0.64 0.67 0.64 0.67 0.69 0.69 0.64 0.64 0.69 0.69 0.69 0.69 0.69 0.69 0.69 0.69 0.69 0.69 0.69 0.74 0.74 0.69 0.69 0.74 0.69 0.74 0.74 0.74 0.74 0.74 0.79 0.74 0.74 0.79 0.79 0.79 0.79 0.79 0.84 0.84 0.84 0.84 0.84 0.89 0.94 0.94 0.94 0.94 0.99 0.94 0.99 1.04 1.04 1.04 1.04 1.14 1.09 1.19 1.19 1.24 1.24 1.29 1.39 1.39 1.44 1.49 1.54 1.54 1.64 1.69 1.76 1.81 1.91 1.96 2.11 2.21 2.31 2.51 2.66 2.86 3.11 3.31 3.66 3.84 4.41 4.96 5.61 7.04 7.86 9.71 13.16 19.36 22.26 28.01 28.01 27.96 27.06 14.26 11.96 10.06 8.81 7.81 6.91 6.66 5.71 5.31 4.91 4.51 4.26 3.96 3.76 3.56 3.36 3.21 3.06 2.91 2.81 2.66 2.61 2.51 2.41 2.36 2.26 2.24 2.29 2.34 2.69 2.74 2.79 2.76 3.11 3.16 3.21 3.26 3.21 3.21 3.16 3.11 3.16 3.01 2.96 2.96 2.91 2.91 2.91 2.81 2.81 2.96 3.01 3.01 2.96 2.91 2.91 2.86 2.86 2.81 2.81 2.76 2.71 2.41 2.31 2.31 2.31 2.26 1.19 1.17 1.14 1.19 1.17 1.14 1.09 1.14 1.12 1.14 1.12 1.12 1.12 1.12 1.12 2.34059 -0.308163 -0.0810195 2.34059 -0.308163 -0.0810195 57.4803 pippo 57.4803
ODOM 2.34059 -0.308163 -0.0810195 0 0 0 0 pippo 0
NEFF 25.8197
ODOM 2.41173 -0.307676 0.0988945 0 0 0 57.6303 pippo 57.6303
ODOM 2.47524 -0.297872 0.22354 0 0 0 57.8013 pippo 57.8013
ODOM 2.53451 -0.282006 0.300037 0 0 0 57.9223 pippo 57.9223
ODOM 2.56013 -0.273547 0.339345 0 0 0 58.1203 pippo 58.1203
ODOM 2.5914 -0.262037 0.370031 0 0 0 58.2403 pippo 58.2403
ODOM 2.62936 -0.246998 0.385165 0 0 0 58.4803 pippo 58.4803
ODOM 2.69715 -0.218956 0.396722 0 0 0 58.6003 pippo 58.6003
ODOM 2.75654 -0.193728 0.413544 0 0 0 58.7203 pippo 58.7203
ODOM 2.81424 -0.167961 0.430776 0 0 0 58.9513 pippo 58.9513
FLASER 180 0.89 0.94 0.94 0.89 0.94 0.94 0.94 0.94 0.94 1.04 1.04 1.04 1.04 0.99 1.04 1.04 1.09 1.09 1.09 1.09 1.14 1.14 1.19 1.19 1.19 1.29 1.24 1.29 1.34 1.39 1.39 1.44 1.49 1.54 1.54 1.59 1.64 1.69 1.74 1.79 1.89 1.94 2.01 2.11 2.16 2.31 2.36 2.46 2.66 2.71 2.91 3.16 3.36 3.61 3.86 4.26 4.61 5.06 5.66 6.59 7.26 8.56 10.41 13.41 18.76 21.81 27.51 27.46 27.51 27.46 14.66 11.81 9.71 8.41 7.31 6.46 6.11 5.21 4.86 4.51 4.11 3.86 3.61 3.36 3.21 3.06 2.91 2.81 2.61 2.46 2.36 2.31 2.26 2.14 2.09 1.99 1.99 1.89 1.84 1.79 1.79 1.79 1.79 1.89 2.24 2.29 2.34 2.36 2.61 2.66 2.71 2.71 2.81 2.76 2.76 2.76 2.79 2.66 2.61 2.56 2.56 2.56 2.51 2.56 2.51 2.46 2.46 2.51 2.51 2.61 2.61 2.56 2.56 2.56 2.56 2.51 2.46 2.46 2.46 2.46 2.46 2.46 2.36 2.41 2.06 2.01 2.01 2.01 2.01 2.01 2.01 1.99 2.04 1.99 1.99 1.99 1.99 1.99 1.99 2.04 1.99 1.11 0.94 0.94 0.94 0.97 0.99 0.94 0.94 0.99 0.94 0.94 0.99 0.94 0.99 1.02 0.99 1.04 0.99 0.99 2.87379 -0.154598 0.389656 2.87379 -0.154598 0.389656 58.9513 pippo 58.9513
ODOM 2.87379 -0.154598 0.389656 0 0 0 0 pippo 0
NEFF 25.2153
ODOM 2.92523 -0.133321 0.399535 0 0 0 59.1103 pippo 59.1103
ODOM 3.00137 -0.101477 0.390285 0 0 0 59.3503 pippo 59.3503
ODOM 3.03582 -0.0875415 0.381674 0 0 0 59.5113 pippo 59.5113
ODOM 3.11749 -0.0550072 0.376839 0 0 0 59.6713 pippo 59.6713
ODOM 3.16659 -0.0359602 0.362755 0 0 0 59.9103 pippo 59.9103
ODOM 3.28391 0.00504847 0.300752 0 0 0 60.0703 pippo 60.0703
ODOM 3.33591 0.0204165 0.270485 0 0 0 60.2303 pippo 60.2303
ODOM 3.40444 0.0383082 0.238749 0 0 0 60.3903 pippo 60.3903
ODOM 3.48306 0.0559735 0.196705 0 0 0 60.6303 pippo 60.6303
ODOM 3.56999 0.0711846 0.149206 0 0 0 60.7903 pippo 60.7903
ODOM 3.63539 0.0800252 0.113475 0 0 0 60.9903 pippo 60.9903
ODOM 3.75317 0.0880509 0.0317137 0 0 0 61.1103 pippo 61.1103
ODOM 3.8241 0.0885046 -0.0136873 0 0 0 61.3103 pippo 61.3103
ODOM 3.91358 0.0855632 -0.0481603 0 0 0 61.4313 pippo 61.4313
FLASER 180 1.07 1.07 1.07 1.07 1.07 1.07 1.07 1.07 1.07 1.12 1.04 1.09 1.09 1.04 1.09 1.04 1.04 1.09 1.12 1.12 1.09 1.09 1.14 1.14 1.09 1.14 1.17 1.14 1.14 1.19 1.19 1.19 1.19 1.19 1.24 1.29 1.24 1.24 1.29 1.29 1.34 1.34 1.34 1.39 1.44 1.44 1.49 1.49 1.54 1.54 1.59 1.64 1.69 1.74 1.74 1.79 1.84 1.84 1.94 1.99 2.04 2.14 2.19 2.21 2.31 2.36 2.46 2.54 2.66 2.76 2.91 3.01 3.21 3.36 3.56 3.76 4.01 4.21 4.61 5.31 5.61 5.76 6.36 7.11 8.01 9.16 10.61 13.16 18.71 20.81 20.86 26.46 26.46 26.51 26.51 11.56 9.26 7.66 6.41 6.26 5.19 5.11 4.11 3.76 3.51 3.21 3.01 2.81 2.61 2.46 2.36 2.21 2.11 2.01 1.96 1.86 1.79 1.74 1.69 1.64 1.59 1.54 1.49 1.44 1.39 1.34 1.29 1.29 1.24 1.19 1.19 1.14 1.14 1.09 1.09 1.04 1.04 1.04 0.99 0.99 0.99 0.99 0.94 0.94 0.94 0.89 0.89 0.89 0.89 0.94 0.94 0.94 0.96 2.06 2.01 1.91 2.01 1.96 2.01 2.01 2.11 2.01 1.89 1.89 1.89 1.94 1.94 1.89 1.89 1.94 1.89 1.94 1.99 2.44 1.79 1.91 2.09 2.09 2.14 2.09 3.79836 0.0494079 -0.041877 3.79836 0.0494079 -0.041877 61.4313 pippo 61.4313
ODOM 3.79836 0.0494079 -0.041877 0 0 0 0 pippo 0
NEFF 25.5159
ODOM 3.86149 0.0455037 -0.078027 0 0 0 61.6703 pippo 61.6703
ODOM 3.96515 0.0345836 -0.134776 0 0 0 61.7903 pippo 61.7903
ODOM 4.02887 0.0252154 -0.153685 0 0 0 62.0303 pippo 62.0303
ODOM 4.10698 0.0126625 -0.163774 0 0 0 62.1113 pippo 62.1113
ODOM 4.16801 0.00192194 -0.177649 0 0 0 62.3503 pippo 62.3503
ODOM 4.23805 -0.0107981 -0.175761 0 0 0 62.5103 pippo 62.5103
ODOM 4.29048 -0.0200507 -0.172815 0 0 0 62.6703 pippo 62.6703
ODOM 4.33721 -0.0283423 -0.174713 0 0 0 62.8203 pippo 62.8203
ODOM 4.42587 -0.044786 -0.193412 0 0 0 63.0603 pippo 63.0603
ODOM 4.47429 -0.0544314 -0.1951 0 0 0 63.1413 pippo 63.1413
ODOM 4.55384 -0.0694639 -0.169458 0 0 0 63.3803 pippo 63.3803
ODOM 4.60162 -0.077292 -0.145494 0 0 0 63.4603 pippo 63.4603
ODOM 4.67754 -0.0873012 -0.115017 0 0 0 63.6203 pippo 63.6203
ODOM 4.686 -0.0882711 -0.110812 0 0 0 63.7003 pippo 63.7003
ODOM 4.73939 -0.0942203 -0.108085 0 0 0 63.8603 pippo 63.8603
ODOM 4.79226 -0.0999911 -0.105558 0 0 0 64.0603 pippo 64.0603
FLASER 180 0.89 0.89 0.89 0.87 0.92 0.89 0.92 0.89 0.89 0.84 0.89 0.89 0.89 0.89 0.89 0.89 0.89 0.89 0.89 0.94 0.94 0.94 0.94 0.94 0.89 0.89 0.94 0.94 0.99 0.99 0.94 0.99 0.99 1.04 0.99 0.99 1.04 1.04 1.04 1.09 1.09 1.09 1.14 1.14 1.14 1.14 1.19 1.19 1.19 1.24 1.29 1.24 1.29 1.29 1.34 1.39 1.39 1.44 1.44 1.54 1.54 1.59 1.64 1.69 1.69 1.79 1.84 1.94 1.96 2.01 2.06 2.16 2.26 2.39 2.46 2.56 2.71 2.86 3.01 3.21 3.36 3.61 4.31 4.56 4.64 4.96 5.41 6.01 6.81 7.81 9.36 11.01 13.91 17.96 19.71 25.51 25.46 25.46 25.51 14.41 11.46 9.26 7.91 6.91 6.11 5.46 5.26 4.96 4.16 4.14 4.01 3.76 3.16 2.96 2.81 2.71 2.56 2.46 2.36 2.21 2.16 2.11 2.01 1.99 1.89 1.79 1.79 1.74 1.69 1.59 1.59 1.54 1.54 1.44 1.44 1.44 1.39 1.34 1.29 1.34 1.24 1.24 1.24 1.24 1.19 1.14 1.14 1.14 1.09 1.09 1.09 1.04 1.04 1.04 1.04 1.04 0.99 0.99 0.99 0.99 0.99 0.99 0.94 0.99 0.99 0.94 0.94 0.89 0.89 0.94 0.89 0.89 0.89 0.89 0.89 0.89 0.89 0.84 0.84 0.89 4.83033 -0.1175 -0.105525 4.83033 -0.1175 -0.105525 64.0603 pippo 64.0603
ODOM 4.83033 -0.1175 -0.105525 0 0 0 0 pippo 0
NEFF 25.0962
ODOM 4.8869 -0.123482 -0.099012 0 0 0 64.1403 pippo 64.1403
ODOM 4.94763 -0.129439 -0.090601 0 0 0 64.3803 pippo 64.3803
ODOM 5.00678 -0.134599 -0.078624 0 0 0 64.5003 pippo 64.5003
ODOM 5.06624 -0.139134 -0.066217 0 0 0 64.6303 pippo 64.6303
ODOM 5.139 -0.143391 -0.042893 0 0 0 64.8703 pippo 64.8703
ODOM 5.21589 -0.145829 -0.013884 0 0 0 64.9803 pippo 64.9803
ODOM 5.28343 -0.146258 0.00334697 0 0 0 65.1803 pippo 65.1803
ODOM 5.34159 -0.145775 0.014066 0 0 0 65.4203 pippo 65.4203
ODOM 5.42121 -0.144852 0.00986997 0 0 0 65.5013 pippo 65.5013
ODOM 5.49 -0.144238 0.011758 0 0 0 65.6603 pippo 65.6603
ODOM 5.53776 -0.143719 0.014695 0 0 0 65.8203 pippo 65.8203
ODOM 5.60954 -0.142528 0.023735 0 0 0 66.0603 pippo 66.0603
ODOM 5.66796 -0.140447 0.054422 0 0 0 66.1403 pippo 66.1403
ODOM 5.71577 -0.137395 0.080484 0 0 0 66.3003 pippo 66.3003
ODOM 5.79261 -0.130113 0.110751 0 0 0 66.4613 pippo 66.4613
ODOM 5.83193 -0.125488 0.125465 0 0 0 66.7003 pippo 66.7003
FLASER 180 0.89 0.92 0.94 0.97 0.94 0.92 0.94 0.94 0.94 0.94 0.89 0.94 0.94 0.99 0.94 0.94 0.94 0.99 1.04 0.99 0.99 1.04 1.04 1.04 1.04 1.09 1.09 1.09 1.09 1.09 1.14 1.14 1.14 1.19 1.19 1.24 1.29 1.29 1.34 1.34 1.34 1.39 1.44 1.49 1.49 1.49 1.54 1.59 1.64 1.69 1.74 1.79 1.79 1.89 1.96 2.01 2.01 2.11 2.26 2.29 2.41 2.56 2.66 3.06 3.21 3.46 3.61 3.64 3.71 4.06 4.36 4.76 5.11 5.71 6.41 7.21 8.36 9.86 12.06 15.71 18.81 18.81 24.51 24.46 24.41 24.51 12.81 10.41 8.61 7.41 6.46 5.81 5.21 4.76 4.31 4.26 4.11 3.86 3.31 3.16 3.16 3.06 2.91 2.76 2.61 2.31 2.21 2.11 2.04 1.99 1.94 1.84 1.79 1.74 1.69 1.64 1.59 1.54 1.54 1.49 1.44 1.39 1.39 1.34 1.34 1.34 1.29 1.24 1.19 1.19 1.19 1.14 1.14 1.09 1.09 1.09 1.09 1.04 1.04 1.04 0.99 0.99 0.99 0.99 0.94 0.94 0.99 0.94 0.94 0.94 0.94 0.94 0.89 0.89 0.89 0.89 0.94 0.89 0.89 0.89 0.89 0.89 0.89 0.89 0.89 0.84 0.89 0.89 0.84 0.87 0.84 0.84 0.87 0.84 0.84 0.87 0.89 0.89 0.84 0.84 5.91299 -0.112769 0.120758 5.91299 -0.112769 0.120758 66.7003 pippo 66.7003
ODOM 5.91299 -0.112769 0.120758 0 0 0 0 pippo 0
NEFF 24.0196
ODOM 6.01374 -0.100527 0.11866 0 0 0 66.8603 pippo 66.8603
ODOM 6.06434 -0.0946261 0.115923 0 0 0 67.0203 pippo 67.0203
ODOM 6.13272 -0.0871794 0.0976429 0 0 0 67.1403 pippo 67.1403
ODOM 6.19515 -0.0820663 0.0692639 0 0 0 67.3403 pippo 67.3403
ODOM 6.2844 -0.0778691 0.0333229 0 0 0 67.4603 pippo 67.4603
ODOM 6.33239 -0.0768618 0.0131449 0 0 0 67.7003 pippo 67.7003
ODOM 6.39733 -0.0766879 -0.00892109 0 0 0 67.8203 pippo 67.8203
ODOM 6.44791 -0.0776277 -0.0282601 0 0 0 68.0603 pippo 68.0603
ODOM 6.51309 -0.0802562 -0.0509561 0 0 0 68.1803 pippo 68.1803
ODOM 6.55549 -0.0825962 -0.0560001 0 0 0 68.4103 pippo 68.4103
ODOM 6.63026 -0.0873807 -0.0721931 0 0 0 68.5703 pippo 68.5703
ODOM 6.71883 -0.0943337 -0.0801741 0 0 0 68.7303 pippo 68.7303
ODOM 6.7731 -0.0987916 -0.0799641 0 0 0 68.8903 pippo 68.8903
ODOM 6.83567 -0.103891 -0.0772371 0 0 0 69.0503 pippo 69.0503
ODOM 6.8838 -0.107616 -0.0721931 0 0 0 69.2103 pippo 69.2103
ODOM 6.94773 -0.11219 -0.0654601 0 0 0 69.3713 pippo 69.3713
FLASER 180 0.92 0.92 0.92 0.92 0.92 0.92 0.92 0.92 0.92 0.89 0.94 0.89 0.94 0.89 0.94 0.94 0.95 0.91 0.94 0.99 0.89 0.99 0.94 0.99 0.94 0.94 0.94 0.99 0.99 0.99 1.02 1.04 1.04 1.04 1.04 1.04 1.09 1.14 1.09 1.09 1.14 1.14 1.19 1.19 1.19 1.24 1.24 1.29 1.29 1.34 1.34 1.39 1.39 1.39 1.44 1.54 1.49 1.59 1.64 1.64 1.69 1.79 1.79 1.86 2.06 2.16 2.21 2.26 2.36 2.51 2.61 2.66 2.69 2.66 2.81 3.01 3.11 3.31 3.56 3.81 4.11 4.41 4.86 5.26 5.81 6.46 7.36 8.61 10.26 12.71 15.76 17.76 23.46 23.46 23.51 23.46 23.51 12.16 9.71 8.36 7.21 6.31 5.66 5.16 4.66 4.31 4.01 3.66 3.46 3.34 3.31 3.21 3.01 2.86 2.61 2.36 2.31 2.21 2.24 2.21 2.11 2.06 2.01 1.94 1.89 1.84 1.79 1.74 1.69 1.69 1.64 1.46 1.41 1.39 1.34 1.34 1.29 1.29 1.24 1.19 1.24 1.14 1.19 1.14 1.14 1.09 1.09 1.04 1.04 1.04 1.04 1.04 0.99 0.99 0.99 0.99 0.99 0.94 0.94 0.94 0.94 0.94 0.94 0.94 0.94 0.89 0.89 0.89 0.89 0.89 0.89 0.89 0.89 0.89 0.89 0.84 0.92 0.87 0.84 0.87 6.93522 -0.114595 -0.0778319 6.93522 -0.114595 -0.0778319 69.3713 pippo 69.3713
ODOM 6.93522 -0.114595 -0.0778319 0 0 0 0 pippo 0
NEFF 23.4181
ODOM 7.00615 -0.120051 -0.0725779 0 0 0 69.5313 pippo 69.5313
ODOM 7.05792 -0.123766 -0.0648059 0 0 0 69.7703 pippo 69.7703
ODOM 7.14791 -0.129555 -0.0601809 0 0 0 69.9303 pippo 69.9303
ODOM 7.20735 -0.133043 -0.0513509 0 0 0 70.0903 pippo 70.0903
ODOM 7.26897 -0.135951 -0.0376859 0 0 0 70.2103 pippo 70.2103
ODOM 7.33745 -0.1384 -0.0311729 0 0 0 70.4103 pippo 70.4103
ODOM 7.40508 -0.140618 -0.0315919 0 0 0 70.5313 pippo 70.5313
ODOM 7.46577 -0.142605 -0.0303339 0 0 0 70.7803 pippo 70.7803
ODOM 7.53729 -0.145055 -0.0343289 0 0 0 70.9003 pippo 70.9003
ODOM 7.60607 -0.147552 -0.0360079 0 0 0 71.1303 pippo 71.1303
ODOM 7.68068 -0.150516 -0.0378949 0 0 0 71.2503 pippo 71.2503
ODOM 7.73931 -0.152722 -0.0318019 0 0 0 71.4903 pippo 71.4903
ODOM 7.82024 -0.155334 -0.0299139 0 0 0 71.5703 pippo 71.5703
ODOM 7.86943 -0.1569 -0.0286549 0 0 0 71.7303 pippo 71.7303
ODOM 7.95909 -0.159447 -0.0257089 0 0 0 71.8903 pippo 71.8903
FLASER 180 0.92 0.87 0.92 0.92 0.92 0.92 0.92 0.92 0.92 0.92 0.87 0.92 0.94 0.89 0.89 0.94 0.94 0.94 0.94 0.94 0.94 0.99 0.94 0.99 0.99 0.99 0.99 0.99 1.04 0.99 1.09 1.04 1.04 1.06 1.06 1.19 1.19 1.24 1.24 1.24 1.29 1.29 1.34 1.39 1.34 1.39 1.44 1.49 1.44 1.49 1.54 1.54 1.59 1.64 1.69 1.74 1.74 1.81 1.76 1.76 1.81 1.84 1.94 1.99 2.04 2.09 2.21 2.26 2.41 2.51 2.56 2.76 2.86 3.01 3.21 3.41 3.61 3.96 4.21 4.56 4.96 5.41 6.36 6.91 7.91 9.31 11.21 13.86 16.76 16.81 22.46 22.51 22.46 22.51 21.56 10.91 9.61 7.76 6.81 6.06 5.41 4.91 4.46 4.16 3.86 3.61 3.41 3.16 3.01 2.86 2.66 2.56 2.46 2.41 2.44 2.36 2.31 2.21 2.11 2.06 1.99 1.99 1.89 1.89 1.79 1.61 1.54 1.54 1.49 1.44 1.41 1.41 1.36 1.41 1.44 1.39 1.39 1.34 1.34 1.29 1.29 1.24 1.29 1.19 1.19 1.19 1.19 1.19 1.14 1.14 1.14 1.09 1.09 1.09 1.09 1.09 1.09 1.09 1.04 1.04 0.99 1.04 1.04 1.04 0.99 0.99 0.99 1.04 0.99 0.97 0.99 0.9 0.92 0.92 0.89 0.84 0.87 0.92 0.87 0.87 7.89356 -0.156476 -0.022584 7.89356 -0.156476 -0.022584 71.8903 pippo 71.8903
ODOM 7.89356 -0.156476 -0.022584 0 0 0 0 pippo 0
NEFF 23.3757
ODOM 7.95164 -0.158016 -0.02595 0 0 0 72.1303 pippo 72.1303
ODOM 8.057 -0.160786 -0.024681 0 0 0 72.2903 pippo 72.2903
ODOM 8.1319 -0.162812 -0.024052 0 0 0 72.4503 pippo 72.4503
ODOM 8.1973 -0.164392 -0.019427 0 0 0 72.6103 pippo 72.6103
ODOM 8.25469 -0.165513 -0.014602 0 0 0 72.7713 pippo 72.7713
ODOM 8.35084 -0.167055 -0.018588 0 0 0 72.9303 pippo 72.9303
ODOM 8.41644 -0.168555 -0.024901 0 0 0 73.1703 pippo 73.1703
ODOM 8.49781 -0.171158 -0.032043 0 0 0 73.2913 pippo 73.2913
ODOM 8.55425 -0.173019 -0.032463 0 0 0 73.4903 pippo 73.4903
ODOM 8.64622 -0.176257 -0.031204 0 0 0 73.6103 pippo 73.6103
ODOM 8.69151 -0.177697 -0.028467 0 0 0 73.7303 pippo 73.7303
ODOM 8.78018 -0.180382 -0.030155 0 0 0 73.9703 pippo 73.9703
ODOM 8.84337 -0.182394 -0.029516 0 0 0 74.0903 pippo 74.0903
ODOM 8.92973 -0.185042 -0.028257 0 0 0 74.2103 pippo 74.2103
FLASER 180 0.97 0.97 0.97 0.97 0.97 0.97 0.97 1.02 0.97 0.97 0.99 0.99 0.99 0.94 0.99 1.04 0.99 0.99 0.99 0.99 1.04 0.99 1.04 1.09 1.09 1.09 1.09 1.09 1.09 1.01 1.09 1.01 1.01 1.01 1.04 1.04 1.04 1.09 1.09 1.09 1.14 1.14 1.14 1.19 1.19 1.24 1.24 1.24 1.29 1.34 1.39 1.39 1.39 1.44 1.44 1.49 1.54 1.59 1.59 1.69 1.74 1.74 1.84 1.84 1.99 2.04 2.09 2.16 2.21 2.31 2.46 2.56 2.66 2.81 2.96 3.16 3.36 3.56 3.86 4.11 4.46 5.36 5.36 6.06 6.81 7.76 9.06 10.76 13.71 15.76 15.81 21.46 21.46 21.46 21.46 20.86 11.11 9.21 7.76 7.46 6.11 5.51 5.01 4.61 4.26 3.91 3.61 3.41 3.21 3.01 2.86 2.76 2.61 2.51 2.36 2.26 2.16 2.11 2.09 1.99 1.94 1.84 1.79 1.79 1.69 1.69 1.59 1.59 1.56 1.51 1.51 1.51 1.54 1.49 1.44 1.44 1.44 1.44 1.34 1.34 1.34 1.34 1.29 1.24 1.24 1.24 1.24 1.19 1.19 1.17 1.14 1.14 1.14 1.14 1.09 1.09 1.09 1.09 1.09 1.09 1.09 1.07 1.04 0.94 0.94 0.94 0.89 0.94 0.94 0.89 0.89 0.89 0.89 0.94 0.92 0.89 0.9 0.95 0.9 0.95 8.92216 -0.186107 -0.0479044 8.92216 -0.186107 -0.0479044 74.2103 pippo 74.2103
ODOM 8.92216 -0.186107 -0.0479044 0 0 0 0 pippo 0
NEFF 23.0368
ODOM 8.97633 -0.188644 -0.0378154 0 0 0 74.4803 pippo 74.4803
ODOM 9.08356 -0.190733 0.0096826 0 0 0 74.6403 pippo 74.6403
ODOM 9.15654 -0.188884 0.0519266 0 0 0 74.8003 pippo 74.8003
ODOM 9.23627 -0.183261 0.0973276 0 0 0 74.9603 pippo 74.9603
ODOM 9.3038 -0.175989 0.118974 0 0 0 75.2003 pippo 75.2003
ODOM 9.39245 -0.165093 0.119824 0 0 0 75.3603 pippo 75.3603
ODOM 9.46895 -0.156362 0.112671 0 0 0 75.5203 pippo 75.5203
ODOM 9.53352 -0.149077 0.115408 0 0 0 75.6803 pippo 75.6803
ODOM 9.62362 -0.139071 0.105529 0 0 0 75.8403 pippo 75.8403
ODOM 9.68995 -0.13226 0.100065 0 0 0 76.0003 pippo 76.0003
ODOM 9.75548 -0.12623 0.0840916 0 0 0 76.1603 pippo 76.1603
ODOM 9.81744 -0.121433 0.0716856 0 0 0 76.2403 pippo 76.2403
ODOM 9.87625 -0.117787 0.0479416 0 0 0 76.4803 pippo 76.4803
ODOM 9.94354 -0.116102 0.0031696 0 0 0 76.5603 pippo 76.5603
FLASER 180 1.03 0.98 1.03 0.98 1 0.98 1.03 1.03 1 1 1.05 1 1 1 1.05 1.05 1.05 1.05 1.05 1.05 1.05 1.05 1.1 1.1 1.1 1.1 1.15 1.15 1.1 1.15 1.2 1.15 1.2 1.2 1.25 1.25 1.25 1.3 1.3 1.3 1.35 1.4 1.4 1.45 1.45 1.5 1.5 1.5 1.55 1.6 1.65 1.7 1.75 1.75 1.8 1.85 1.95 1.95 2.1 2.1 2.2 2.22 2.32 2.37 2.52 2.62 2.72 2.82 2.97 3.12 3.32 3.42 4.12 4.42 4.37 4.62 5.07 5.42 5.97 6.72 7.52 8.72 9.92 11.92 14.82 14.82 20.47 20.47 20.47 20.47 20.47 19.57 9.97 8.32 7.62 6.42 5.52 4.97 4.52 4.07 3.82 3.52 3.27 3.02 2.87 2.72 2.57 2.47 2.37 2.22 2.12 2.07 1.92 1.87 1.85 1.75 1.75 1.7 1.6 1.6 1.5 1.5 1.45 1.45 1.35 1.35 1.3 1.3 1.25 1.25 1.2 1.2 1.15 1.15 1.1 1.1 1.1 1.1 1.05 1.05 1 1.05 0.95 1 0.95 0.95 0.95 0.95 0.95 0.95 0.9 0.9 0.9 0.9 0.85 0.9 0.85 0.85 0.85 0.85 0.85 0.85 0.8 0.88 0.9 0.93 0.9 0.93 0.9 0.88 0.93 0.93 0.93 0.93 0.88 0.93 0.93 0.93 0.88 0.88 9.87002 -0.123764 0.0281352 9.87002 -0.123764 0.0281352 76.5603 pippo 76.5603
ODOM 9.87002 -0.123764 0.0281352 0 0 0 0 pippo 0
NEFF 23.0664
ODOM 9.91798 -0.123404 -0.00675681 0 0 0 76.8003 pippo 76.8003
ODOM 9.9938 -0.124901 -0.0298818 0 0 0 76.9203 pippo 76.9203
ODOM 10.0708 -0.127722 -0.0384928 0 0 0 77.1603 pippo 77.1603
ODOM 10.1463 -0.130746 -0.0366048 0 0 0 77.2803 pippo 77.2803
ODOM 10.2082 -0.132998 -0.0326088 0 0 0 77.4803 pippo 77.4803
ODOM 10.2778 -0.135167 -0.0246278 0 0 0 77.6403 pippo 77.6403
ODOM 10.3332 -0.136448 -0.0178948 0 0 0 77.8003 pippo 77.8003
ODOM 10.398 -0.13771 -0.0168458 0 0 0 77.9603 pippo 77.9603
ODOM 10.4434 -0.138463 -0.0132698 0 0 0 78.2003 pippo 78.2003
ODOM 10.5241 -0.139862 -0.0212608 0 0 0 78.2803 pippo 78.2803
ODOM 10.5882 -0.141474 -0.0241978 0 0 0 78.5203 pippo 78.5203
ODOM 10.6447 -0.142981 -0.0271448 0 0 0 78.6003 pippo 78.6003
ODOM 10.7059 -0.14471 -0.0254668 0 0 0 78.8303 pippo 78.8303
ODOM 10.7863 -0.146784 -0.0225198 0 0 0 78.9903 pippo 78.9903
ODOM 10.8464 -0.148228 -0.0229388 0 0 0 79.1503 pippo 79.1503
ODOM 10.9169 -0.149987 -0.0218908 0 0 0 79.3203 pippo 79.3203
